"Prefix","Usage","County","City","ShortState","LongState","Zip","Timezone","Latitude","Longitude"
"(620) 205-","Cell Number","Montgomery","Independence","KS","Kansas","67301","Central / Mountain","37.180636","-95.756197"
"(785) 793-","Landline","Osage","Scranton","KS","Kansas","66537","Central / Mountain","38.74633","-95.675159"
"(316) 807-","Cell Number","Sedgwick","Wichita","KS","Kansas","67206","Central","37.613954","-97.342752"
"(620) 603-","Landline","Barton","Great Bend","KS","Kansas","67530","Central / Mountain","38.393567","-98.775074"
"(316) 587-","Unknown","Harvey","Newton","KS","Kansas","67114","Central","38.044857","-97.317279"
"(785) 818-","Landline","Cloud","Concordia","KS","Kansas","66901","Central / Mountain","39.551634","-97.656764"
"(620) 263-","Landline","Coffey","Burlington","KS","Kansas","66839","Central / Mountain","38.236316","-95.733598"
"(785) 273-","Landline","Shawnee","Topeka","KS","Kansas","66616","Central / Mountain","39.065477","-95.626357"
"(785) 384-","Cell Number","Lincoln","Lincoln","KS","Kansas","67455","Central / Mountain","39.102718","-98.214909"
"(620) 597-","Landline","Labette","Oswego","KS","Kansas","67356","Central / Mountain","37.18919","-95.242611"
"(620) 851-","Cell Number","Pawnee","Larned","KS","Kansas","67550","Central / Mountain","38.194644","-99.10096"
"(785) 240-","Landline","Geary","Junction City","KS","Kansas","66441","Central / Mountain","39.026465","-96.783359"
"(620) 262-","Landline","Cowley","Winfield","KS","Kansas","67156","Central / Mountain","37.232126","-96.996334"
"(785) 268-","Cell Number","Marshall","Marysville","KS","Kansas","66508","Central / Mountain","39.863544","-96.617219"
"(785) 771-","Landline","Jackson","Delia","KS","Kansas","66418","Central / Mountain","39.300065","-95.900691"
"(620) 855-","Landline","Gray","Cimarron","KS","Kansas","67835","Central / Mountain","37.803608","-100.338634"
"(620) 427-","Landline","Greenwood","Madison","KS","Kansas","66860","Central / Mountain","38.061943","-96.144795"
"(785) 943-","Landline","Wallace","Weskan","KS","Kansas","67762","Central / Mountain","38.916183","-101.762678"
"(620) 252-","Landline","Montgomery","Coffeyville","KS","Kansas","67337","Central / Mountain","37.146267","-95.748313"
"(785) 593-","Landline","Cloud","Glasco","KS","Kansas","67445","Central / Mountain","39.36117","-97.83825"
"(785) 381-","Unknown","Lincoln","Sylvan Grove","KS","Kansas","67481","Central / Mountain","38.969795","-98.435528"
"(785) 810-","Unknown","Ellsworth","Ellsworth","KS","Kansas","67439","Central / Mountain","38.696579","-98.205437"
"(620) 443-","Landline","Lyon","Americus","KS","Kansas","66835","Central / Mountain","38.556174","-96.261884"
"(316) 201-","Landline","Sedgwick","Wichita","KS","Kansas","67206","Central","37.613954","-97.342752"
"(785) 257-","Landline","Dickinson","Woodbine","KS","Kansas","67492","Central / Mountain","38.812401","-96.964022"
"(620) 422-","Landline","Reno","Nickerson","KS","Kansas","67561","Central / Mountain","38.100868","-98.105772"
"(913) 954-","Unknown","Wyandotte","Kansas City","KS","Kansas","66160","Central","39.096551","-94.749538"
"(913) 752-","Landline","Johnson","Lenexa","KS","Kansas","66215","Central","38.949007","-94.740503"
"(316) 213-","Cell Number","Sedgwick","Wichita","KS","Kansas","67206","Central","37.613954","-97.342752"
"(620) 525-","Landline","Hodgeman","Hanston","KS","Kansas","67849","Central / Mountain","38.121492","-99.709532"
"(316) 243-","Unknown","Sedgwick","Wichita","KS","Kansas","67206","Central","37.613954","-97.342752"
"(785) 855-","Landline","Thomas","Rexford","KS","Kansas","67753","Central / Mountain","39.390715","-101.049033"
"(620) 878-","Landline","Marion","Florence","KS","Kansas","66851","Central / Mountain","38.293353","-96.974518"
"(913) 538-","Landline","Johnson","Olathe","KS","Kansas","66051","Central","38.899901","-94.831991"
"(913) 396-","Landline","Johnson","Overland Park","KS","Kansas","66225","Central","38.899901","-94.831991"
"(785) 806-","Cell Number","Shawnee","Topeka","KS","Kansas","66616","Central / Mountain","39.065477","-95.626357"
"(316) 943-","Landline","Sedgwick","Wichita","KS","Kansas","67206","Central","37.613954","-97.342752"
"(620) 857-","Landline","Bourbon","Fulton","KS","Kansas","66738","Central / Mountain","38.01017","-94.720191"
"(913) 964-","Landline","Anderson","Bucyrus","KS","Kansas","66013","Central","38.676056","-94.685052"
"(785) 859-","Landline","Marshall","Marysville","KS","Kansas","66508","Central / Mountain","39.863544","-96.617219"
"(913) 791-","Landline","Johnson","Olathe","KS","Kansas","66051","Central","38.899901","-94.831991"
"(913) 533-","Landline","Miami","Bucyrus","KS","Kansas","66013","Central","38.676056","-94.685052"
"(620) 545-","Landline","Sedgwick","Clearwater","KS","Kansas","67026","Central / Mountain","37.548282","-97.488432"
"(316) 208-","Cell Number","Sedgwick","Wichita","KS","Kansas","67206","Central","37.613954","-97.342752"
"(785) 462-","Landline","Thomas","Colby","KS","Kansas","67701","Central / Mountain","39.40152","-100.973696"
"(620) 656-","Landline","Reno","Turon","KS","Kansas","67583","Central / Mountain","37.822393","-98.359075"
"(913) 955-","Landline","Wyandotte","Bonner Springs","KS","Kansas","66012","Central","39.068153","-94.763938"
"(620) 240-","Landline","Crawford","Pittsburg","KS","Kansas","66762","Central / Mountain","37.448044","-94.819212"
"(785) 922-","Landline","Dickinson","Chapman","KS","Kansas","67431","Central / Mountain","38.972672","-97.018914"
"(316) 206-","Landline","Sedgwick","Wichita","KS","Kansas","67206","Central","37.613954","-97.342752"
"(785) 737-","Landline","Rooks","Palco","KS","Kansas","67657","Central / Mountain","39.229778","-99.346263"
"(620) 272-","Landline","Finney","Garden City","KS","Kansas","67846","Central / Mountain","38.000771","-100.664407"
"(913) 563-","Landline","Wyandotte","Kansas City","KS","Kansas","66160","Central","39.096551","-94.749538"
"(785) 218-","Cell Number","Douglas","Lawrence","KS","Kansas","66047","Central / Mountain","38.88437","-95.338066"
"(620) 345-","Landline","Mcpherson","Moundridge","KS","Kansas","67107","Central / Mountain","38.217149","-97.523327"
"(913) 849-","Landline","Miami","Fontana","KS","Kansas","66026","Central","38.417885","-94.88344"
"(785) 825-","Landline","Saline","Salina","KS","Kansas","67401","Central / Mountain","38.823673","-97.642113"
"(785) 988-","Landline","Doniphan","Bendena","KS","Kansas","66008","Central / Mountain","39.712615","-95.186894"
"(913) 944-","Unknown","Wyandotte","Kansas City","KS","Kansas","66160","Central","39.096551","-94.749538"
"(785) 224-","Cell Number","Shawnee","Topeka","KS","Kansas","66616","Central / Mountain","39.065477","-95.626357"
"(620) 820-","Landline","Labette","Parsons","KS","Kansas","67357","Central / Mountain","37.217756","-95.266407"
"(913) 369-","Landline","Leavenworth","Tonganoxie","KS","Kansas","66086","Central","39.115489","-95.084717"
"(316) 730-","Landline","Sedgwick","Wichita","KS","Kansas","67206","Central","37.613954","-97.342752"
"(620) 740-","Cell Number","Harper","Harper","KS","Kansas","67058","Central / Mountain","37.291318","-98.038455"
"(316) 671-","Landline","Sedgwick","Wichita","KS","Kansas","67206","Central","37.613954","-97.342752"
"(620) 937-","Cell Number","Finney","Garden City","KS","Kansas","67846","Central / Mountain","38.000771","-100.664407"
"(316) 746-","Landline","Butler","Douglass","KS","Kansas","67039","Central","37.535867","-96.998807"
"(620) 406-","Cell Number","Meade","Meade","KS","Kansas","67864","Central / Mountain","37.238357","-100.316583"
"(620) 376-","Landline","Greeley","Tribune","KS","Kansas","67879","Central / Mountain","38.469704","-101.747853"
"(785) 679-","Landline","Marshall","Oketo","KS","Kansas","66518","Central / Mountain","39.964838","-96.551054"
"(620) 322-","Landline","Reno","Anthony","KS","Kansas","67003","Central / Mountain","37.111488","-98.048121"
"(785) 269-","Landline","Thomas","Colby","KS","Kansas","67701","Central / Mountain","39.40152","-100.973696"
"(620) 207-","Cell Number","Reno","Nickerson","KS","Kansas","67561","Central / Mountain","38.100868","-98.105772"
"(620) 910-","Landline","Pawnee","Larned","KS","Kansas","67550","Central / Mountain","38.194644","-99.10096"
"(620) 604-","Landline","Seward","Liberal","KS","Kansas","67901","Central / Mountain","37.043237","-100.873809"
"(785) 400-","Unknown","Ottawa","Tescott","KS","Kansas","67484","Central / Mountain","39.041646","-97.719466"
"(316) 308-","Landline","Sedgwick","Wichita","KS","Kansas","67206","Central","37.613954","-97.342752"
"(620) 474-","Cell Number","Reno","Hutchinson","KS","Kansas","67501","Central / Mountain","37.954312","-97.88569"
"(620) 386-","Landline","Mcpherson","Moundridge","KS","Kansas","67107","Central / Mountain","38.217149","-97.523327"
"(620) 431-","Landline","Neosho","Chanute","KS","Kansas","66720","Central / Mountain","37.609218","-95.416422"
"(913) 749-","Unknown","Wyandotte","Kansas City","KS","Kansas","66160","Central","39.096551","-94.749538"
"(620) 840-","Landline","Harper","Harper","KS","Kansas","67058","Central / Mountain","37.291318","-98.038455"
"(785) 260-","Cell Number","Gove","Quinter","KS","Kansas","67752","Central / Mountain","39.063613","-100.238001"
"(785) 313-","Cell Number","Riley","Manhattan","KS","Kansas","66502","Central / Mountain","39.209375","-96.564589"
"(785) 484-","Landline","Jefferson","Meriden","KS","Kansas","66512","Central / Mountain","39.202791","-95.530598"
"(785) 208-","Cell Number","Phillips","Phillipsburg","KS","Kansas","67661","Central / Mountain","39.779113","-99.346302"
"(913) 307-","Landline","Johnson","Lenexa","KS","Kansas","66215","Central","38.949007","-94.740503"
"(620) 534-","Landline","Rice","Sterling","KS","Kansas","67579","Central / Mountain","38.224187","-98.183033"
"(913) 393-","Landline","Johnson","Olathe","KS","Kansas","66051","Central","38.899901","-94.831991"
"(913) 603-","Unknown","Johnson","Gardner","KS","Kansas","66030","Central","38.814998","-94.94139"
"(620) 660-","Cell Number","Cowley","Arkansas City","KS","Kansas","67005","Central / Mountain","37.149582","-96.904215"
"(620) 336-","Landline","Montgomery","Cherryvale","KS","Kansas","67335","Central / Mountain","37.167997","-95.732508"
"(620) 340-","Landline","Lyon","Emporia","KS","Kansas","66801","Central / Mountain","38.434153","-96.152766"
"(620) 614-","Landline","Stafford","Macksville","KS","Kansas","67557","Central / Mountain","37.95853","-98.968997"
"(785) 917-","Cell Number","Douglas","Lawrence","KS","Kansas","66047","Central / Mountain","38.88437","-95.338066"
"(785) 536-","Landline","Saline","Gypsum","KS","Kansas","67448","Central / Mountain","38.710913","-97.492119"
"(785) 674-","Landline","Graham","Hill City","KS","Kansas","67642","Central / Mountain","39.366018","-99.842382"
"(913) 978-","Cell Number","Wyandotte","Kansas City","KS","Kansas","66160","Central","39.096551","-94.749538"
"(785) 952-","Unknown","Osborne","Osborne","KS","Kansas","67473","Central / Mountain","39.385738","-98.795417"
"(316) 942-","Landline","Sedgwick","Wichita","KS","Kansas","67206","Central","37.613954","-97.342752"
"(316) 409-","Cell Number","Sedgwick","Wichita","KS","Kansas","67206","Central","37.613954","-97.342752"
"(620) 499-","Landline","Hamilton","Syracuse","KS","Kansas","67878","Central / Mountain","37.986428","-101.751732"
"(620) 415-","Unknown","Cowley","Dexter","KS","Kansas","67038","Central / Mountain","37.178743","-96.715776"
"(785) 523-","Landline","Ottawa","Delphos","KS","Kansas","67436","Central / Mountain","39.263098","-97.714625"
"(620) 276-","Landline","Finney","Garden City","KS","Kansas","67846","Central / Mountain","38.000771","-100.664407"
"(620) 236-","Landline","Labette","Chetopa","KS","Kansas","67336","Central / Mountain","37.04542","-95.218047"
"(785) 207-","Cell Number","Shawnee","Topeka","KS","Kansas","66616","Central / Mountain","39.065477","-95.626357"
"(316) 210-","Cell Number","Sedgwick","Wichita","KS","Kansas","67206","Central","37.613954","-97.342752"
"(620) 893-","Landline","Pratt","Coats","KS","Kansas","67028","Central / Mountain","37.638236","-98.889244"
"(620) 927-","Unknown","Greeley","Tribune","KS","Kansas","67879","Central / Mountain","38.469704","-101.747853"
"(785) 424-","Landline","Douglas","Lawrence","KS","Kansas","66047","Central / Mountain","38.88437","-95.338066"
"(785) 714-","Landline","Saline","Salina","KS","Kansas","67401","Central / Mountain","38.823673","-97.642113"
"(785) 465-","Landline","Thomas","Colby","KS","Kansas","67701","Central / Mountain","39.40152","-100.973696"
"(620) 848-","Landline","Cherokee","Riverton","KS","Kansas","66770","Central / Mountain","37.073183","-94.758958"
"(785) 525-","Landline","Russell","Lucas","KS","Kansas","67648","Central / Mountain","39.008115","-98.754407"
"(785) 466-","Landline","Morris","Wilsey","KS","Kansas","66873","Central / Mountain","38.682093","-96.663865"
"(913) 636-","Cell Number","Wyandotte","Kansas City","KS","Kansas","66160","Central","39.096551","-94.749538"
"(913) 671-","Landline","Wyandotte","Kansas City","KS","Kansas","66160","Central","39.096551","-94.749538"
"(785) 786-","Landline","Jewell","Esbon","KS","Kansas","66941","Central / Mountain","39.820964","-98.433369"
"(620) 361-","Landline","Montgomery","Alden","KS","Kansas","67512","Central / Mountain","38.233295","-98.316515"
"(785) 626-","Landline","Rawlins","Atwood","KS","Kansas","67730","Central / Mountain","39.824688","-101.041371"
"(620) 235-","Landline","Crawford","Pittsburg","KS","Kansas","66762","Central / Mountain","37.448044","-94.819212"
"(785) 625-","Landline","Ellis","Hays","KS","Kansas","67601","Central / Mountain","38.878202","-99.334803"
"(620) 860-","Landline","Reno","Hutchinson","KS","Kansas","67501","Central / Mountain","37.954312","-97.88569"
"(785) 335-","Landline","Republic","Scandia","KS","Kansas","66966","Central / Mountain","39.794591","-97.783734"
"(620) 938-","Landline","Rice","Chase","KS","Kansas","67524","Central / Mountain","38.362338","-98.246676"
"(620) 478-","Landline","Kingman","Norwich","KS","Kansas","67118","Central / Mountain","37.486261","-97.923919"
"(913) 882-","Landline","Johnson","Edgerton","KS","Kansas","66021","Central","38.817766","-94.94316"
"(913) 646-","Cell Number","Wyandotte","Kansas City","KS","Kansas","66160","Central","39.096551","-94.749538"
"(620) 356-","Landline","Grant","Ulysses","KS","Kansas","67880","Central / Mountain","37.562467","-101.308565"
"(785) 728-","Landline","Sherman","Goodland","KS","Kansas","67735","Central / Mountain","39.358123","-101.798885"
"(620) 400-","Unknown","Barton","Great Bend","KS","Kansas","67530","Central / Mountain","38.393567","-98.775074"
"(785) 761-","Landline","Geary","Junction City","KS","Kansas","66441","Central / Mountain","39.026465","-96.783359"
"(316) 660-","Landline","Sedgwick","Wichita","KS","Kansas","67206","Central","37.613954","-97.342752"
"(316) 634-","Landline","Sedgwick","Wichita","KS","Kansas","67206","Central","37.613954","-97.342752"
"(316) 288-","Cell Number","Harvey","Newton","KS","Kansas","67114","Central","38.044857","-97.317279"
"(785) 326-","Landline","Republic","Munden","KS","Kansas","66959","Central / Mountain","39.860279","-97.498488"
"(785) 445-","Landline","Russell","Russell","KS","Kansas","67665","Central / Mountain","38.905159","-98.784797"
"(785) 469-","Unknown","Russell","Lucas","KS","Kansas","67648","Central / Mountain","39.008115","-98.754407"
"(620) 497-","Landline","Reno","Turon","KS","Kansas","67583","Central / Mountain","37.822393","-98.359075"
"(785) 842-","Landline","Douglas","Lawrence","KS","Kansas","66047","Central / Mountain","38.88437","-95.338066"
"(913) 961-","Cell Number","Wyandotte","Kansas City","KS","Kansas","66160","Central","39.096551","-94.749538"
"(620) 899-","Cell Number","Reno","Hutchinson","KS","Kansas","67501","Central / Mountain","37.954312","-97.88569"
"(316) 320-","Landline","Butler","El Dorado","KS","Kansas","67042","Central","37.830491","-96.865969"
"(913) 599-","Landline","Johnson","Lenexa","KS","Kansas","66215","Central","38.949007","-94.740503"
"(913) 440-","Landline","Johnson","Olathe","KS","Kansas","66051","Central","38.899901","-94.831991"
"(316) 751-","Landline","Harvey","Sedgwick","KS","Kansas","67135","Central","37.955789","-97.473214"
"(913) 387-","Landline","Johnson","Lenexa","KS","Kansas","66215","Central","38.949007","-94.740503"
"(620) 782-","Landline","Cowley","Udall","KS","Kansas","67146","Central / Mountain","37.387823","-97.117926"
"(316) 761-","Cell Number","Sedgwick","Wichita","KS","Kansas","67206","Central","37.613954","-97.342752"
"(913) 259-","Landline","Miami","Paola","KS","Kansas","66071","Central","38.577932","-94.880328"
"(913) 403-","Landline","Wyandotte","Kansas City","KS","Kansas","66160","Central","39.096551","-94.749538"
"(620) 392-","Landline","Lyon","Hartford","KS","Kansas","66854","Central / Mountain","38.345691","-96.103771"
"(913) 324-","Landline","Johnson","Olathe","KS","Kansas","66051","Central","38.899901","-94.831991"
"(913) 787-","Landline","Wyandotte","Kansas City","KS","Kansas","66160","Central","39.096551","-94.749538"
"(785) 299-","Cell Number","Gove","Quinter","KS","Kansas","67752","Central / Mountain","39.063613","-100.238001"
"(785) 270-","Landline","Shawnee","Topeka","KS","Kansas","66616","Central / Mountain","39.065477","-95.626357"
"(913) 574-","Landline","Wyandotte","Kansas City","KS","Kansas","66160","Central","39.096551","-94.749538"
"(785) 382-","Landline","Nemaha","Centralia","KS","Kansas","66415","Central / Mountain","39.697428","-96.032867"
"(785) 738-","Landline","Mitchell","Beloit","KS","Kansas","67420","Central / Mountain","39.441631","-98.119189"
"(913) 370-","Cell Number","Atchison","Atchison","KS","Kansas","66002","Central","39.535948","-95.225098"
"(316) 393-","Cell Number","Sedgwick","Wichita","KS","Kansas","67206","Central","37.613954","-97.342752"
"(785) 433-","Landline","Anderson","Garnett","KS","Kansas","66032","Central / Mountain","38.232767","-95.286458"
"(785) 298-","Landline","Cheyenne","Saint Francis","KS","Kansas","67756","Central / Mountain","39.680371","-101.909252"
"(316) 461-","Cell Number","Sedgwick","Wichita","KS","Kansas","67206","Central","37.613954","-97.342752"
"(620) 375-","Landline","Wichita","Leoti","KS","Kansas","67861","Central / Mountain","38.477827","-101.293036"
"(620) 283-","Unknown","Hamilton","Syracuse","KS","Kansas","67878","Central / Mountain","37.986428","-101.751732"
"(316) 436-","Landline","Sedgwick","Wichita","KS","Kansas","67206","Central","37.613954","-97.342752"
"(785) 205-","Cell Number","Rooks","Stockton","KS","Kansas","67669","Central / Mountain","39.412166","-99.369872"
"(785) 389-","Landline","Smith","Lebanon","KS","Kansas","66952","Central / Mountain","39.807699","-98.556016"
"(620) 922-","Landline","Labette","Edna","KS","Kansas","67342","Central / Mountain","37.071835","-95.347225"
"(316) 858-","Landline","Sedgwick","Wichita","KS","Kansas","67206","Central","37.613954","-97.342752"
"(785) 639-","Cell Number","Ellis","Hays","KS","Kansas","67601","Central / Mountain","38.878202","-99.334803"
"(620) 735-","Landline","Chase","Matfield Green","KS","Kansas","66862","Central / Mountain","38.303962","-96.597442"
"(913) 585-","Landline","Johnson","De Soto","KS","Kansas","66018","Central","38.946156","-94.97143"
"(316) 214-","Cell Number","Sedgwick","Wichita","KS","Kansas","67206","Central","37.613954","-97.342752"
"(620) 548-","Landline","Kiowa","Mullinville","KS","Kansas","67109","Central / Mountain","37.593142","-99.387747"
"(785) 812-","Landline","Douglas","Lawrence","KS","Kansas","66047","Central / Mountain","38.88437","-95.338066"
"(620) 702-","Landline","Montgomery","Cherryvale","KS","Kansas","67335","Central / Mountain","37.167997","-95.732508"
"(785) 766-","Cell Number","Douglas","Lawrence","KS","Kansas","66047","Central / Mountain","38.88437","-95.338066"
"(620) 645-","Landline","Woodson","Toronto","KS","Kansas","66777","Central / Mountain","37.814423","-95.88888"
"(913) 378-","Landline","Johnson","Lenexa","KS","Kansas","66215","Central","38.949007","-94.740503"
"(913) 294-","Landline","Miami","Paola","KS","Kansas","66071","Central","38.577932","-94.880328"
"(913) 514-","Landline","Wyandotte","Kansas City","KS","Kansas","66160","Central","39.096551","-94.749538"
"(620) 286-","Landline","Reno","Abbyville","KS","Kansas","67510","Central / Mountain","38.013705","-98.169523"
"(785) 235-","Landline","Shawnee","Topeka","KS","Kansas","66616","Central / Mountain","39.065477","-95.626357"
"(785) 561-","Unknown","Morris","Burdick","KS","Kansas","66838","Central / Mountain","38.565758","-96.801336"
"(913) 543-","Landline","Johnson","Bonner Springs","KS","Kansas","66012","Central","39.068153","-94.763938"
"(316) 264-","Landline","Sedgwick","Wichita","KS","Kansas","67206","Central","37.613954","-97.342752"
"(785) 394-","Landline","Rush","Alexander","KS","Kansas","67513","Central / Mountain","38.470116","-99.553222"
"(913) 795-","Landline","Linn","Mound City","KS","Kansas","66056","Central","38.243571","-94.766019"
"(785) 487-","Unknown","Brown","Horton","KS","Kansas","66439","Central / Mountain","39.664076","-95.527212"
"(785) 889-","Landline","Pottawatomie","Onaga","KS","Kansas","66521","Central / Mountain","39.442426","-96.34428"
"(913) 586-","Landline","Johnson","De Soto","KS","Kansas","66018","Central","38.946156","-94.97143"
"(785) 463-","Landline","Geary","Milford","KS","Kansas","66514","Central / Mountain","39.127855","-96.874028"
"(620) 414-","Unknown","Montgomery","Cherryvale","KS","Kansas","67335","Central / Mountain","37.167997","-95.732508"
"(913) 832-","Landline","Wyandotte","Kansas City","KS","Kansas","66160","Central","39.096551","-94.749538"
"(316) 880-","Cell Number","Sedgwick","Wichita","KS","Kansas","67206","Central","37.613954","-97.342752"
"(785) 739-","Landline","Jewell","Randall","KS","Kansas","66963","Central / Mountain","39.643012","-98.044991"
"(913) 833-","Landline","Atchison","Effingham","KS","Kansas","66023","Central","39.507561","-95.393716"
"(620) 654-","Landline","Mcpherson","Galva","KS","Kansas","67443","Central / Mountain","38.382827","-97.47325"
"(913) 748-","Landline","Wyandotte","Kansas City","KS","Kansas","66160","Central","39.096551","-94.749538"
"(620) 267-","Landline","Marion","Peabody","KS","Kansas","66866","Central / Mountain","38.134801","-97.003776"
"(620) 491-","Cell Number","Kingman","Kingman","KS","Kansas","67068","Central / Mountain","37.596364","-98.130432"
"(913) 322-","Landline","Johnson","Lenexa","KS","Kansas","66215","Central","38.949007","-94.740503"
"(316) 283-","Landline","Harvey","Newton","KS","Kansas","67114","Central","38.044857","-97.317279"
"(785) 341-","Cell Number","Riley","Manhattan","KS","Kansas","66502","Central / Mountain","39.209375","-96.564589"
"(785) 899-","Landline","Sherman","Goodland","KS","Kansas","67735","Central / Mountain","39.358123","-101.798885"
"(620) 282-","Cell Number","Barton","Great Bend","KS","Kansas","67530","Central / Mountain","38.393567","-98.775074"
"(620) 583-","Landline","Greenwood","Eureka","KS","Kansas","67045","Central / Mountain","37.755154","-96.170019"
"(620) 584-","Landline","Sedgwick","Clearwater","KS","Kansas","67026","Central / Mountain","37.548282","-97.488432"
"(913) 879-","Landline","Miami","Bucyrus","KS","Kansas","66013","Central","38.676056","-94.685052"
"(785) 554-","Cell Number","Shawnee","Topeka","KS","Kansas","66616","Central / Mountain","39.065477","-95.626357"
"(620) 625-","Landline","Woodson","Yates Center","KS","Kansas","66783","Central / Mountain","37.884741","-95.723555"
"(316) 445-","Landline","Sedgwick","Andale","KS","Kansas","67001","Central","37.779733","-97.636619"
"(620) 915-","Landline","Barber","Sharon","KS","Kansas","67138","Central / Mountain","37.224446","-98.42233"
"(316) 644-","Cell Number","Sedgwick","Wichita","KS","Kansas","67206","Central","37.613954","-97.342752"
"(785) 401-","Unknown","Mitchell","Tipton","KS","Kansas","67485","Central / Mountain","39.339425","-98.470261"
"(620) 895-","Landline","Pratt","Pratt","KS","Kansas","67124","Central / Mountain","37.63857","-98.758512"
"(316) 220-","Landline","Sedgwick","Wichita","KS","Kansas","67206","Central","37.613954","-97.342752"
"(620) 238-","Cell Number","Crawford","Girard","KS","Kansas","66743","Central / Mountain","37.471611","-94.881385"
"(785) 310-","Landline","Osage","Lyndon","KS","Kansas","66451","Central / Mountain","38.622848","-95.656131"
"(913) 262-","Landline","Wyandotte","Kansas City","KS","Kansas","66160","Central","39.096551","-94.749538"
"(785) 923-","Landline","Phillips","Long Island","KS","Kansas","67647","Central / Mountain","39.784708","-99.347075"
"(913) 221-","Cell Number","Johnson","Kansas City","KS","Kansas","66160","Central","39.096551","-94.749538"
"(785) 823-","Landline","Saline","Salina","KS","Kansas","67401","Central / Mountain","38.823673","-97.642113"
"(620) 500-","Unknown","Reno","Hutchinson","KS","Kansas","67501","Central / Mountain","37.954312","-97.88569"
"(785) 687-","Landline","Thomas","Rexford","KS","Kansas","67753","Central / Mountain","39.390715","-101.049033"
"(316) 221-","Landline","Sedgwick","Wichita","KS","Kansas","67206","Central","37.613954","-97.342752"
"(620) 861-","Cell Number","Haskell","Sublette","KS","Kansas","67877","Central / Mountain","37.482236","-100.848783"
"(316) 881-","Landline","Harvey","Sedgwick","KS","Kansas","67135","Central","37.955789","-97.473214"
"(785) 435-","Landline","Shawnee","Topeka","KS","Kansas","66616","Central / Mountain","39.065477","-95.626357"
"(913) 826-","Landline","Johnson","Lenexa","KS","Kansas","66215","Central","38.949007","-94.740503"
"(785) 214-","Cell Number","Franklin","Ottawa","KS","Kansas","66067","Central / Mountain","38.564337","-95.282668"
"(785) 984-","Landline","Osborne","Alton","KS","Kansas","67623","Central / Mountain","39.430147","-98.928883"
"(785) 540-","Landline","Phillips","Phillipsburg","KS","Kansas","67661","Central / Mountain","39.779113","-99.346302"
"(620) 364-","Landline","Coffey","Burlington","KS","Kansas","66839","Central / Mountain","38.236316","-95.733598"
"(913) 721-","Landline","Leavenworth","Basehor","KS","Kansas","66007","Central","39.133448","-94.947234"
"(620) 955-","Landline","Kingman","Kingman","KS","Kansas","67068","Central / Mountain","37.596364","-98.130432"
"(785) 735-","Landline","Ellis","Victoria","KS","Kansas","67671","Central / Mountain","38.915745","-99.141972"
"(785) 829-","Landline","Saline","Salina","KS","Kansas","67401","Central / Mountain","38.823673","-97.642113"
"(913) 488-","Cell Number","Johnson","Lenexa","KS","Kansas","66215","Central","38.949007","-94.740503"
"(785) 874-","Landline","Norton","Norton","KS","Kansas","67654","Central / Mountain","39.827955","-99.891726"
"(785) 953-","Cell Number","Logan","Oakley","KS","Kansas","67748","Central / Mountain","38.945805","-100.970176"
"(913) 610-","Cell Number","Wyandotte","Kansas City","KS","Kansas","66160","Central","39.096551","-94.749538"
"(785) 221-","Cell Number","Shawnee","Topeka","KS","Kansas","66616","Central / Mountain","39.065477","-95.626357"
"(620) 796-","Unknown","Barton","Great Bend","KS","Kansas","67530","Central / Mountain","38.393567","-98.775074"
"(620) 982-","Landline","Barton","Pawnee Rock","KS","Kansas","67567","Central / Mountain","38.451554","-98.959346"
"(620) 539-","Landline","Clark","Ashland","KS","Kansas","67831","Central / Mountain","37.171946","-99.769576"
"(785) 340-","Landline","Riley","Manhattan","KS","Kansas","66502","Central / Mountain","39.209375","-96.564589"
"(620) 515-","Cell Number","Montgomery","Coffeyville","KS","Kansas","67337","Central / Mountain","37.146267","-95.748313"
"(785) 309-","Landline","Saline","Salina","KS","Kansas","67401","Central / Mountain","38.823673","-97.642113"
"(316) 281-","Landline","Harvey","Newton","KS","Kansas","67114","Central","38.044857","-97.317279"
"(620) 452-","Unknown","Barton","Albert","KS","Kansas","67511","Central / Mountain","38.420451","-98.913448"
"(620) 518-","Unknown","Clark","Ashland","KS","Kansas","67831","Central / Mountain","37.171946","-99.769576"
"(913) 321-","Landline","Wyandotte","Kansas City","KS","Kansas","66160","Central","39.096551","-94.749538"
"(620) 513-","Landline","Reno","Hutchinson","KS","Kansas","67501","Central / Mountain","37.954312","-97.88569"
"(316) 284-","Landline","Harvey","Newton","KS","Kansas","67114","Central","38.044857","-97.317279"
"(620) 231-","Landline","Crawford","Pittsburg","KS","Kansas","66762","Central / Mountain","37.448044","-94.819212"
"(620) 326-","Landline","Sumner","Wellington","KS","Kansas","67152","Central / Mountain","37.280877","-97.42223"
"(785) 510-","Unknown","Washington","Washington","KS","Kansas","66968","Central / Mountain","39.781107","-97.054286"
"(785) 418-","Cell Number","Franklin","Ottawa","KS","Kansas","66067","Central / Mountain","38.564337","-95.282668"
"(620) 307-","Landline","Cowley","Arkansas City","KS","Kansas","67005","Central / Mountain","37.149582","-96.904215"
"(620) 649-","Landline","Haskell","Satanta","KS","Kansas","67870","Central / Mountain","37.441023","-100.998474"
"(620) 434-","Landline","Sumner","Mayfield","KS","Kansas","67103","Central / Mountain","37.268787","-97.556978"
"(785) 210-","Landline","Geary","Junction City","KS","Kansas","66441","Central / Mountain","39.026465","-96.783359"
"(620) 909-","Landline","Scott","Scott City","KS","Kansas","67871","Central / Mountain","38.482307","-100.906427"
"(913) 285-","Cell Number","Miami","Paola","KS","Kansas","66071","Central","38.577932","-94.880328"
"(316) 390-","Cell Number","Sedgwick","Wichita","KS","Kansas","67206","Central","37.613954","-97.342752"
"(620) 393-","Unknown","Hodgeman","Jetmore","KS","Kansas","67854","Central / Mountain","38.023937","-99.893681"
"(913) 269-","Cell Number","Johnson","Lenexa","KS","Kansas","66215","Central","38.949007","-94.740503"
"(620) 904-","Landline","Rice","Sterling","KS","Kansas","67579","Central / Mountain","38.224187","-98.183033"
"(620) 765-","Landline","Finney","Garden City","KS","Kansas","67846","Central / Mountain","38.000771","-100.664407"
"(785) 331-","Landline","Douglas","Lawrence","KS","Kansas","66047","Central / Mountain","38.88437","-95.338066"
"(913) 747-","Landline","Johnson","Lenexa","KS","Kansas","66215","Central","38.949007","-94.740503"
"(785) 232-","Landline","Shawnee","Topeka","KS","Kansas","66616","Central / Mountain","39.065477","-95.626357"
"(316) 742-","Landline","Butler","Leon","KS","Kansas","67074","Central","37.66475","-96.748795"
"(316) 869-","Landline","Sedgwick","Wichita","KS","Kansas","67206","Central","37.613954","-97.342752"
"(620) 239-","Landline","Barber","Hazelton","KS","Kansas","67061","Central / Mountain","37.114569","-98.410166"
"(785) 474-","Landline","Brown","Powhattan","KS","Kansas","66527","Central / Mountain","39.761448","-95.635089"
"(785) 356-","Landline","Rush","Bison","KS","Kansas","67520","Central / Mountain","38.563156","-99.195772"
"(316) 974-","Landline","Sedgwick","Cheney","KS","Kansas","67025","Central","37.633711","-97.73513"
"(785) 695-","Landline","Smith","Kensington","KS","Kansas","66951","Central / Mountain","39.783621","-98.796287"
"(620) 659-","Landline","Edwards","Kinsley","KS","Kansas","67547","Central / Mountain","37.91204","-99.478881"
"(785) 385-","Landline","Russell","Russell","KS","Kansas","67665","Central / Mountain","38.905159","-98.784797"
"(620) 934-","Cell Number","Barton","Pawnee Rock","KS","Kansas","67567","Central / Mountain","38.451554","-98.959346"
"(620) 273-","Landline","Chase","Cottonwood Falls","KS","Kansas","66845","Central / Mountain","38.37674","-96.54945"
"(913) 284-","Cell Number","Johnson","Kansas City","KS","Kansas","66160","Central","39.096551","-94.749538"
"(785) 482-","Landline","Morris","White City","KS","Kansas","66872","Central / Mountain","38.783116","-96.779581"
"(620) 741-","Landline","Cowley","Arkansas City","KS","Kansas","67005","Central / Mountain","37.149582","-96.904215"
"(913) 471-","Landline","Linn","Prescott","KS","Kansas","66767","Central","38.178868","-94.705448"
"(620) 617-","Cell Number","Barton","Great Bend","KS","Kansas","67530","Central / Mountain","38.393567","-98.775074"
"(620) 200-","Cell Number","Reno","Hutchinson","KS","Kansas","67501","Central / Mountain","37.954312","-97.88569"
"(620) 337-","Unknown","Harper","Attica","KS","Kansas","67009","Central / Mountain","37.224885","-98.210087"
"(785) 653-","Landline","Phillips","Long Island","KS","Kansas","67647","Central / Mountain","39.784708","-99.347075"
"(785) 307-","Cell Number","Geary","Junction City","KS","Kansas","66441","Central / Mountain","39.026465","-96.783359"
"(913) 613-","Cell Number","Wyandotte","Kansas City","KS","Kansas","66160","Central","39.096551","-94.749538"
"(785) 477-","Unknown","Riley","Manhattan","KS","Kansas","66502","Central / Mountain","39.209375","-96.564589"
"(620) 891-","Cell Number","Montgomery","Cherryvale","KS","Kansas","67335","Central / Mountain","37.167997","-95.732508"
"(785) 438-","Landline","Shawnee","Topeka","KS","Kansas","66616","Central / Mountain","39.065477","-95.626357"
"(620) 382-","Landline","Marion","Marion","KS","Kansas","66861","Central / Mountain","38.284561","-96.965255"
"(785) 440-","Landline","Shawnee","Topeka","KS","Kansas","66616","Central / Mountain","39.065477","-95.626357"
"(620) 367-","Landline","Harvey","Hesston","KS","Kansas","67062","Central / Mountain","38.137404","-97.443222"
"(785) 569-","Landline","Mitchell","Beloit","KS","Kansas","67420","Central / Mountain","39.441631","-98.119189"
"(620) 921-","Landline","Reno","Hutchinson","KS","Kansas","67501","Central / Mountain","37.954312","-97.88569"
"(620) 430-","Cell Number","Ford","Dodge City","KS","Kansas","67801","Central / Mountain","37.690531","-99.902421"
"(785) 364-","Landline","Jackson","Holton","KS","Kansas","66436","Central / Mountain","39.481012","-95.765586"
"(620) 678-","Landline","Greenwood","Hamilton","KS","Kansas","66853","Central / Mountain","37.980393","-96.199508"
"(785) 760-","Cell Number","Douglas","Lawrence","KS","Kansas","66047","Central / Mountain","38.88437","-95.338066"
"(785) 271-","Landline","Shawnee","Topeka","KS","Kansas","66616","Central / Mountain","39.065477","-95.626357"
"(785) 512-","Unknown","Dickinson","Hope","KS","Kansas","67451","Central / Mountain","38.826292","-97.121874"
"(316) 670-","Landline","Sedgwick","Wichita","KS","Kansas","67206","Central","37.613954","-97.342752"
"(913) 232-","Landline","Wyandotte","Kansas City","KS","Kansas","66160","Central","39.096551","-94.749538"
"(785) 821-","Cell Number","Sherman","Goodland","KS","Kansas","67735","Central / Mountain","39.358123","-101.798885"
"(620) 344-","Cell Number","Lyon","Emporia","KS","Kansas","66801","Central / Mountain","38.434153","-96.152766"
"(316) 519-","Cell Number","Sedgwick","Wichita","KS","Kansas","67206","Central","37.613954","-97.342752"
"(785) 733-","Landline","Coffey","Waverly","KS","Kansas","66871","Central / Mountain","38.346908","-95.628088"
"(316) 621-","Landline","Butler","El Dorado","KS","Kansas","67042","Central","37.830491","-96.865969"
"(785) 986-","Landline","Jackson","Hoyt","KS","Kansas","66440","Central / Mountain","39.305187","-95.685374"
"(316) 779-","Landline","Sedgwick","Valley Center","KS","Kansas","67147","Central","37.845078","-97.335537"
"(913) 310-","Landline","Johnson","Lenexa","KS","Kansas","66215","Central","38.949007","-94.740503"
"(316) 530-","Landline","Butler","Benton","KS","Kansas","67017","Central","37.831767","-97.097363"
"(785) 632-","Landline","Clay","Clay Center","KS","Kansas","67432","Central / Mountain","39.349452","-97.164849"
"(785) 529-","Landline","Mitchell","Hunter","KS","Kansas","67452","Central / Mountain","39.287497","-98.433673"
"(620) 401-","Unknown","Wichita","Leoti","KS","Kansas","67861","Central / Mountain","38.477827","-101.293036"
"(785) 377-","Unknown","Marshall","Blue Rapids","KS","Kansas","66411","Central / Mountain","39.713306","-96.563601"
"(785) 549-","Landline","Osage","Melvern","KS","Kansas","66510","Central / Mountain","38.499728","-95.611239"
"(785) 614-","Cell Number","Cloud","Concordia","KS","Kansas","66901","Central / Mountain","39.551634","-97.656764"
"(620) 651-","Unknown","Kearny","Deerfield","KS","Kansas","67838","Central / Mountain","37.964591","-101.190998"
"(913) 273-","Landline","Wyandotte","Kansas City","KS","Kansas","66160","Central","39.096551","-94.749538"
"(620) 624-","Landline","Seward","Liberal","KS","Kansas","67901","Central / Mountain","37.043237","-100.873809"
"(316) 536-","Landline","Butler","Towanda","KS","Kansas","67144","Central","37.905383","-96.85903"
"(316) 838-","Landline","Sedgwick","Wichita","KS","Kansas","67206","Central","37.613954","-97.342752"
"(620) 517-","Unknown","Sumner","Caldwell","KS","Kansas","67022","Central / Mountain","37.133257","-97.601664"
"(785) 983-","Landline","Morris","Burdick","KS","Kansas","66838","Central / Mountain","38.565758","-96.801336"
"(316) 570-","Landline","Sedgwick","Wichita","KS","Kansas","67206","Central","37.613954","-97.342752"
"(913) 647-","Landline","Johnson","Lenexa","KS","Kansas","66215","Central","38.949007","-94.740503"
"(913) 608-","Unknown","Wyandotte","Kansas City","KS","Kansas","66160","Central","39.096551","-94.749538"
"(620) 279-","Landline","Chase","Strong City","KS","Kansas","66869","Central / Mountain","38.390683","-96.538737"
"(913) 827-","Unknown","Wyandotte","Kansas City","KS","Kansas","66160","Central","39.096551","-94.749538"
"(620) 274-","Landline","Chase","Cedar Point","KS","Kansas","66843","Central / Mountain","38.260042","-96.822766"
"(913) 754-","Landline","Johnson","Lenexa","KS","Kansas","66215","Central","38.949007","-94.740503"
"(620) 324-","Landline","Edwards","Lewis","KS","Kansas","67552","Central / Mountain","37.936208","-99.254501"
"(913) 424-","Landline","Wyandotte","Kansas City","KS","Kansas","66160","Central","39.096551","-94.749538"
"(785) 337-","Landline","Washington","Hanover","KS","Kansas","66945","Central / Mountain","39.867079","-96.896534"
"(316) 377-","Cell Number","Butler","El Dorado","KS","Kansas","67042","Central","37.830491","-96.865969"
"(620) 960-","Cell Number","Reno","Hutchinson","KS","Kansas","67501","Central / Mountain","37.954312","-97.88569"
"(620) 398-","Landline","Lane","Healy","KS","Kansas","67850","Central / Mountain","38.578991","-100.600786"
"(913) 738-","Landline","Wyandotte","Kansas City","KS","Kansas","66160","Central","39.096551","-94.749538"
"(620) 405-","Unknown","Allen","La Harpe","KS","Kansas","66751","Central / Mountain","37.914528","-95.255758"
"(620) 965-","Landline","Butler","Latham","KS","Kansas","67072","Central / Mountain","37.606889","-96.658181"
"(620) 738-","Landline","Comanche","Wilmore","KS","Kansas","67155","Central / Mountain","37.191758","-99.272769"
"(620) 564-","Landline","Barton","Ellinwood","KS","Kansas","67526","Central / Mountain","38.46396","-98.733001"
"(785) 556-","Cell Number","Riley","Manhattan","KS","Kansas","66502","Central / Mountain","39.209375","-96.564589"
"(913) 728-","Landline","Leavenworth","Basehor","KS","Kansas","66007","Central","39.133448","-94.947234"
"(785) 328-","Landline","Jackson","Holton","KS","Kansas","66436","Central / Mountain","39.481012","-95.765586"
"(785) 492-","Unknown","Geary","Junction City","KS","Kansas","66441","Central / Mountain","39.026465","-96.783359"
"(620) 338-","Landline","Ford","Dodge City","KS","Kansas","67801","Central / Mountain","37.690531","-99.902421"
"(620) 501-","Landline","Barber","Medicine Lodge","KS","Kansas","67104","Central / Mountain","37.291739","-98.620996"
"(913) 302-","Cell Number","Wyandotte","Kansas City","KS","Kansas","66160","Central","39.096551","-94.749538"
"(913) 299-","Landline","Wyandotte","Kansas City","KS","Kansas","66160","Central","39.096551","-94.749538"
"(316) 871-","Cell Number","Sedgwick","Wichita","KS","Kansas","67206","Central","37.613954","-97.342752"
"(785) 217-","Landline","Shawnee","Topeka","KS","Kansas","66616","Central / Mountain","39.065477","-95.626357"
"(620) 360-","Cell Number","Morton","Elkhart","KS","Kansas","67950","Central / Mountain","37.00405","-101.896973"
"(316) 247-","Unknown","Sedgwick","Wichita","KS","Kansas","67206","Central","37.613954","-97.342752"
"(620) 335-","Landline","Gray","Ingalls","KS","Kansas","67853","Central / Mountain","37.789051","-100.46093"
"(913) 888-","Landline","Johnson","Lenexa","KS","Kansas","66215","Central","38.949007","-94.740503"
"(785) 300-","Unknown","Nemaha","Sabetha","KS","Kansas","66534","Central / Mountain","39.899941","-95.802372"
"(620) 329-","Landline","Elk","Elk Falls","KS","Kansas","67345","Central / Mountain","37.383228","-96.272149"
"(785) 220-","Cell Number","Shawnee","Topeka","KS","Kansas","66616","Central / Mountain","39.065477","-95.626357"
"(620) 554-","Unknown","Grant","Ulysses","KS","Kansas","67880","Central / Mountain","37.562467","-101.308565"
"(620) 728-","Landline","Reno","Hutchinson","KS","Kansas","67501","Central / Mountain","37.954312","-97.88569"
"(316) 207-","Cell Number","Sedgwick","Wichita","KS","Kansas","67206","Central","37.613954","-97.342752"
"(316) 550-","Landline","Sedgwick","Goddard","KS","Kansas","67052","Central","37.663432","-97.579616"
"(913) 544-","Landline","Johnson","Kansas City","KS","Kansas","66160","Central","39.096551","-94.749538"
"(785) 650-","Landline","Ellis","Hays","KS","Kansas","67601","Central / Mountain","38.878202","-99.334803"
"(913) 477-","Landline","Johnson","Lenexa","KS","Kansas","66215","Central","38.949007","-94.740503"
"(620) 270-","Landline","Montgomery","Caney","KS","Kansas","67333","Central / Mountain","37.048046","-95.884949"
"(620) 698-","Landline","Wilson","Fredonia","KS","Kansas","66736","Central / Mountain","37.571672","-95.748418"
"(620) 390-","Unknown","Ford","Dodge City","KS","Kansas","67801","Central / Mountain","37.690531","-99.902421"
"(620) 846-","Landline","Gray","Montezuma","KS","Kansas","67867","Central / Mountain","37.598638","-100.415568"
"(785) 282-","Landline","Smith","Smith Center","KS","Kansas","66967","Central / Mountain","39.788577","-98.673356"
"(913) 644-","Cell Number","Wyandotte","Kansas City","KS","Kansas","66160","Central","39.096551","-94.749538"
"(316) 444-","Landline","Sedgwick","Andale","KS","Kansas","67001","Central","37.779733","-97.636619"
"(620) 952-","Cell Number","Grant","Ulysses","KS","Kansas","67880","Central / Mountain","37.562467","-101.308565"
"(913) 410-","Landline","Johnson","Overland Park","KS","Kansas","66225","Central","38.899901","-94.831991"
"(620) 481-","Cell Number","Lyon","Emporia","KS","Kansas","66801","Central / Mountain","38.434153","-96.152766"
"(620) 378-","Landline","Wilson","Fredonia","KS","Kansas","66736","Central / Mountain","37.571672","-95.748418"
"(913) 915-","Cell Number","Johnson","Overland Park","KS","Kansas","66225","Central","38.899901","-94.831991"
"(620) 793-","Landline","Barton","Great Bend","KS","Kansas","67530","Central / Mountain","38.393567","-98.775074"
"(620) 495-","Landline","Stanton","Johnson","KS","Kansas","67855","Central / Mountain","37.562997","-101.707858"
"(620) 874-","Landline","Scott","Scott City","KS","Kansas","67871","Central / Mountain","38.482307","-100.906427"
"(316) 619-","Cell Number","Sedgwick","Wichita","KS","Kansas","67206","Central","37.613954","-97.342752"
"(620) 218-","Cell Number","Cowley","Winfield","KS","Kansas","67156","Central / Mountain","37.232126","-96.996334"
"(316) 416-","Landline","Butler","Whitewater","KS","Kansas","67154","Central","37.977983","-97.088361"
"(620) 220-","Cell Number","Chase","Cottonwood Falls","KS","Kansas","66845","Central / Mountain","38.37674","-96.54945"
"(620) 319-","Landline","Chautauqua","Sedan","KS","Kansas","67361","Central / Mountain","37.134351","-96.219212"
"(620) 940-","Landline","Rice","Chase","KS","Kansas","67524","Central / Mountain","38.362338","-98.246676"
"(785) 655-","Landline","Dickinson","Solomon","KS","Kansas","67480","Central / Mountain","38.910885","-97.339456"
"(785) 973-","Landline","Phillips","Prairie View","KS","Kansas","67664","Central / Mountain","39.75337","-99.348129"
"(785) 537-","Landline","Riley","Manhattan","KS","Kansas","66502","Central / Mountain","39.209375","-96.564589"
"(620) 369-","Landline","Ford","Ford","KS","Kansas","67842","Central / Mountain","37.587839","-99.799449"
"(785) 776-","Landline","Riley","Manhattan","KS","Kansas","66502","Central / Mountain","39.209375","-96.564589"
"(785) 890-","Landline","Sherman","Goodland","KS","Kansas","67735","Central / Mountain","39.358123","-101.798885"
"(620) 752-","Landline","Butler","Potwin","KS","Kansas","67123","Central / Mountain","37.937595","-97.038364"
"(785) 250-","Cell Number","Shawnee","Topeka","KS","Kansas","66616","Central / Mountain","39.065477","-95.626357"
"(785) 362-","Landline","Nemaha","Wetmore","KS","Kansas","66550","Central / Mountain","39.636115","-95.811894"
"(913) 341-","Landline","Johnson","Overland Park","KS","Kansas","66225","Central","38.899901","-94.831991"
"(620) 306-","Cell Number","Montgomery","Caney","KS","Kansas","67333","Central / Mountain","37.048046","-95.884949"
"(620) 305-","Cell Number","Neosho","Chanute","KS","Kansas","66720","Central / Mountain","37.609218","-95.416422"
"(785) 530-","Unknown","Geary","Junction City","KS","Kansas","66441","Central / Mountain","39.026465","-96.783359"
"(913) 226-","Cell Number","Johnson","Lenexa","KS","Kansas","66215","Central","38.949007","-94.740503"
"(620) 710-","Landline","Chautauqua","Sedan","KS","Kansas","67361","Central / Mountain","37.134351","-96.219212"
"(316) 217-","Cell Number","Butler","Whitewater","KS","Kansas","67154","Central","37.977983","-97.088361"
"(785) 731-","Landline","Ness","Arnold","KS","Kansas","67515","Central / Mountain","38.479822","-99.916519"
"(913) 596-","Landline","Wyandotte","Kansas City","KS","Kansas","66160","Central","39.096551","-94.749538"
"(620) 688-","Cell Number","Montgomery","Coffeyville","KS","Kansas","67337","Central / Mountain","37.146267","-95.748313"
"(620) 388-","Cell Number","Pratt","Pratt","KS","Kansas","67124","Central / Mountain","37.63857","-98.758512"
"(913) 583-","Landline","Johnson","De Soto","KS","Kansas","66018","Central","38.946156","-94.97143"
"(620) 473-","Landline","Allen","Humboldt","KS","Kansas","66748","Central / Mountain","37.829342","-95.34549"
"(316) 282-","Landline","Harvey","Newton","KS","Kansas","67114","Central","38.044857","-97.317279"
"(785) 446-","Landline","Cloud","Clyde","KS","Kansas","66938","Central / Mountain","39.59127","-97.398639"
"(913) 569-","Landline","Linn","Prescott","KS","Kansas","66767","Central","38.178868","-94.705448"
"(620) 647-","Landline","Elk","Moline","KS","Kansas","67353","Central / Mountain","37.357438","-96.373849"
"(913) 575-","Unknown","Wyandotte","Kansas City","KS","Kansas","66160","Central","39.096551","-94.749538"
"(785) 226-","Cell Number","Geary","Junction City","KS","Kansas","66441","Central / Mountain","39.026465","-96.783359"
"(316) 686-","Landline","Sedgwick","Wichita","KS","Kansas","67206","Central","37.613954","-97.342752"
"(785) 290-","Landline","Shawnee","Topeka","KS","Kansas","66616","Central / Mountain","39.065477","-95.626357"
"(785) 387-","Landline","Rush","Otis","KS","Kansas","67565","Central / Mountain","38.53527","-99.053404"
"(785) 751-","Landline","Logan","Winona","KS","Kansas","67764","Central / Mountain","38.921702","-101.094305"
"(316) 491-","Landline","Sedgwick","Wichita","KS","Kansas","67206","Central","37.613954","-97.342752"
"(785) 370-","Landline","Riley","Manhattan","KS","Kansas","66502","Central / Mountain","39.209375","-96.564589"
"(913) 592-","Landline","Johnson","Spring Hill","KS","Kansas","66083","Central","38.789323","-94.788441"
"(620) 490-","Cell Number","Coffey","Burlington","KS","Kansas","66839","Central / Mountain","38.236316","-95.733598"
"(620) 275-","Landline","Finney","Garden City","KS","Kansas","67846","Central / Mountain","38.000771","-100.664407"
"(785) 706-","Landline","Riley","Manhattan","KS","Kansas","66502","Central / Mountain","39.209375","-96.564589"
"(316) 305-","Cell Number","Sedgwick","Wichita","KS","Kansas","67206","Central","37.613954","-97.342752"
"(785) 726-","Landline","Ellis","Ellis","KS","Kansas","67637","Central / Mountain","38.950015","-99.336337"
"(785) 979-","Cell Number","Douglas","Lawrence","KS","Kansas","66047","Central / Mountain","38.88437","-95.338066"
"(785) 472-","Landline","Ellsworth","Ellsworth","KS","Kansas","67439","Central / Mountain","38.696579","-98.205437"
"(620) 244-","Landline","Neosho","Erie","KS","Kansas","66733","Central / Mountain","37.580055","-95.29892"
"(316) 541-","Landline","Butler","Towanda","KS","Kansas","67144","Central","37.905383","-96.85903"
"(316) 337-","Landline","Sedgwick","Wichita","KS","Kansas","67206","Central","37.613954","-97.342752"
"(316) 651-","Landline","Sedgwick","Wichita","KS","Kansas","67206","Central","37.613954","-97.342752"
"(785) 647-","Landline","Jewell","Burr Oak","KS","Kansas","66936","Central / Mountain","39.784792","-98.218469"
"(620) 331-","Landline","Montgomery","Independence","KS","Kansas","67301","Central / Mountain","37.180636","-95.756197"
"(785) 392-","Landline","Ottawa","Minneapolis","KS","Kansas","67467","Central / Mountain","39.141097","-97.650674"
"(785) 686-","Landline","Smith","Smith Center","KS","Kansas","66967","Central / Mountain","39.788577","-98.673356"
"(913) 565-","Landline","Leavenworth","Leavenworth","KS","Kansas","66048","Central","39.279656","-94.982216"
"(620) 343-","Landline","Lyon","Emporia","KS","Kansas","66801","Central / Mountain","38.434153","-96.152766"
"(785) 559-","Landline","Shawnee","Topeka","KS","Kansas","66616","Central / Mountain","39.065477","-95.626357"
"(785) 869-","Landline","Franklin","Lane","KS","Kansas","66042","Central / Mountain","38.550993","-95.263735"
"(785) 668-","Landline","Saline","Falun","KS","Kansas","67442","Central / Mountain","38.69098","-97.787364"
"(785) 945-","Landline","Jefferson","Valley Falls","KS","Kansas","66088","Central / Mountain","39.248329","-95.428183"
"(620) 743-","Landline","Bourbon","Mapleton","KS","Kansas","66754","Central / Mountain","37.855416","-94.850996"
"(316) 975-","Landline","Butler","Whitewater","KS","Kansas","67154","Central","37.977983","-97.088361"
"(785) 885-","Landline","Osborne","Natoma","KS","Kansas","67651","Central / Mountain","39.227878","-98.945419"
"(316) 778-","Landline","Butler","Benton","KS","Kansas","67017","Central","37.831767","-97.097363"
"(785) 314-","Cell Number","Osborne","Osborne","KS","Kansas","67473","Central / Mountain","39.385738","-98.795417"
"(620) 877-","Landline","Marion","Hillsboro","KS","Kansas","67063","Central / Mountain","38.347988","-97.205656"
"(913) 631-","Landline","Wyandotte","Kansas City","KS","Kansas","66160","Central","39.096551","-94.749538"
"(620) 483-","Landline","Marion","Lehigh","KS","Kansas","67073","Central / Mountain","38.372882","-97.302858"
"(785) 865-","Landline","Douglas","Lawrence","KS","Kansas","66047","Central / Mountain","38.88437","-95.338066"
"(620) 742-","Unknown","Cherokee","Galena","KS","Kansas","66739","Central / Mountain","37.15456","-94.833896"
"(316) 928-","Landline","Sedgwick","Wichita","KS","Kansas","67206","Central","37.613954","-97.342752"
"(913) 732-","Unknown","Johnson","Olathe","KS","Kansas","66051","Central","38.899901","-94.831991"
"(620) 468-","Landline","Allen","Iola","KS","Kansas","66749","Central / Mountain","37.885757","-95.391057"
"(785) 713-","Cell Number","Marshall","Marysville","KS","Kansas","66508","Central / Mountain","39.863544","-96.617219"
"(785) 322-","Landline","Rawlins","Herndon","KS","Kansas","67739","Central / Mountain","39.909207","-100.784803"
"(620) 255-","Cell Number","Ford","Dodge City","KS","Kansas","67801","Central / Mountain","37.690531","-99.902421"
"(785) 633-","Cell Number","Shawnee","Topeka","KS","Kansas","66616","Central / Mountain","39.065477","-95.626357"
"(785) 391-","Landline","Ness","Utica","KS","Kansas","67584","Central / Mountain","38.641893","-100.170396"
"(785) 778-","Landline","Washington","Haddam","KS","Kansas","66944","Central / Mountain","39.83551","-97.269445"
"(316) 223-","Landline","Sedgwick","Wichita","KS","Kansas","67206","Central","37.613954","-97.342752"
"(913) 775-","Cell Number","Leavenworth","Leavenworth","KS","Kansas","66048","Central","39.279656","-94.982216"
"(785) 345-","Landline","Osborne","Osborne","KS","Kansas","67473","Central / Mountain","39.385738","-98.795417"
"(316) 517-","Landline","Sedgwick","Wichita","KS","Kansas","67206","Central","37.613954","-97.342752"
"(785) 283-","Landline","Ottawa","Tescott","KS","Kansas","67484","Central / Mountain","39.041646","-97.719466"
"(620) 357-","Landline","Hodgeman","Jetmore","KS","Kansas","67854","Central / Mountain","38.023937","-99.893681"
"(785) 841-","Landline","Douglas","Lawrence","KS","Kansas","66047","Central / Mountain","38.88437","-95.338066"
"(620) 628-","Landline","Mcpherson","Canton","KS","Kansas","67428","Central / Mountain","38.392631","-97.426953"
"(785) 827-","Landline","Saline","Salina","KS","Kansas","67401","Central / Mountain","38.823673","-97.642113"
"(785) 854-","Landline","Phillips","Long Island","KS","Kansas","67647","Central / Mountain","39.784708","-99.347075"
"(913) 706-","Cell Number","Johnson","Lenexa","KS","Kansas","66215","Central","38.949007","-94.740503"
"(620) 371-","Unknown","Ford","Dodge City","KS","Kansas","67801","Central / Mountain","37.690531","-99.902421"
"(785) 395-","Landline","Riley","Manhattan","KS","Kansas","66502","Central / Mountain","39.209375","-96.564589"
"(785) 643-","Cell Number","Saline","Salina","KS","Kansas","67401","Central / Mountain","38.823673","-97.642113"
"(785) 662-","Landline","Rooks","Palco","KS","Kansas","67657","Central / Mountain","39.229778","-99.346263"
"(785) 533-","Cell Number","Phillips","Phillipsburg","KS","Kansas","67661","Central / Mountain","39.779113","-99.346302"
"(785) 301-","Unknown","Ellis","Hays","KS","Kansas","67601","Central / Mountain","38.878202","-99.334803"
"(620) 447-","Landline","Sumner","Geuda Springs","KS","Kansas","67051","Central / Mountain","37.139313","-97.458635"
"(620) 234-","Landline","Stafford","Stafford","KS","Kansas","67578","Central / Mountain","37.961811","-98.775"
"(316) 244-","Unknown","Butler","El Dorado","KS","Kansas","67042","Central","37.830491","-96.865969"
"(785) 431-","Landline","Shawnee","Topeka","KS","Kansas","66616","Central / Mountain","39.065477","-95.626357"
"(316) 677-","Landline","Sedgwick","Wichita","KS","Kansas","67206","Central","37.613954","-97.342752"
"(785) 234-","Landline","Shawnee","Topeka","KS","Kansas","66616","Central / Mountain","39.065477","-95.626357"
"(785) 493-","Landline","Saline","Salina","KS","Kansas","67401","Central / Mountain","38.823673","-97.642113"
"(620) 543-","Landline","Reno","Buhler","KS","Kansas","67522","Central / Mountain","38.122794","-97.766352"
"(316) 265-","Landline","Sedgwick","Wichita","KS","Kansas","67206","Central","37.613954","-97.342752"
"(620) 926-","Cell Number","Montgomery","Independence","KS","Kansas","67301","Central / Mountain","37.180636","-95.756197"
"(620) 569-","Landline","Pawnee","Larned","KS","Kansas","67550","Central / Mountain","38.194644","-99.10096"
"(913) 712-","Landline","Johnson","Olathe","KS","Kansas","66051","Central","38.899901","-94.831991"
"(620) 389-","Landline","Cherokee","Riverton","KS","Kansas","66770","Central / Mountain","37.073183","-94.758958"
"(316) 616-","Landline","Sedgwick","Wichita","KS","Kansas","67206","Central","37.613954","-97.342752"
"(316) 941-","Landline","Sedgwick","Wichita","KS","Kansas","67206","Central","37.613954","-97.342752"
"(620) 285-","Landline","Pawnee","Larned","KS","Kansas","67550","Central / Mountain","38.194644","-99.10096"
"(913) 947-","Landline","Anderson","Bucyrus","KS","Kansas","66013","Central","38.676056","-94.685052"
"(785) 547-","Landline","Brown","Horton","KS","Kansas","66439","Central / Mountain","39.664076","-95.527212"
"(913) 963-","Cell Number","Wyandotte","Kansas City","KS","Kansas","66160","Central","39.096551","-94.749538"
"(913) 907-","Landline","Wyandotte","Kansas City","KS","Kansas","66160","Central","39.096551","-94.749538"
"(913) 271-","Cell Number","Wyandotte","Kansas City","KS","Kansas","66160","Central","39.096551","-94.749538"
"(785) 542-","Landline","Douglas","Eudora","KS","Kansas","66025","Central / Mountain","38.879142","-95.125903"
"(620) 226-","Landline","Labette","Bartlett","KS","Kansas","67332","Central / Mountain","37.045463","-95.229916"
"(785) 680-","Cell Number","Gove","Quinter","KS","Kansas","67752","Central / Mountain","39.063613","-100.238001"
"(620) 968-","Cell Number","Sumner","Wellington","KS","Kansas","67152","Central / Mountain","37.280877","-97.42223"
"(785) 291-","Landline","Shawnee","Topeka","KS","Kansas","66616","Central / Mountain","39.065477","-95.626357"
"(785) 403-","Landline","Jefferson","Meriden","KS","Kansas","66512","Central / Mountain","39.202791","-95.530598"
"(913) 481-","Cell Number","Johnson","Lenexa","KS","Kansas","66215","Central","38.949007","-94.740503"
"(785) 428-","Landline","Jewell","Jewell","KS","Kansas","66949","Central / Mountain","39.671874","-98.147215"
"(785) 685-","Landline","Brown","Hiawatha","KS","Kansas","66434","Central / Mountain","39.791367","-95.600405"
"(913) 684-","Landline","Leavenworth","Leavenworth","KS","Kansas","66048","Central","39.279656","-94.982216"
"(620) 593-","Landline","Morton","Rolla","KS","Kansas","67954","Central / Mountain","37.081137","-101.60469"
"(620) 622-","Landline","Comanche","Protection","KS","Kansas","67127","Central / Mountain","37.200135","-99.482888"
"(785) 434-","Landline","Rooks","Plainville","KS","Kansas","67663","Central / Mountain","39.248844","-99.316373"
"(785) 357-","Landline","Shawnee","Topeka","KS","Kansas","66616","Central / Mountain","39.065477","-95.626357"
"(785) 426-","Landline","Rawlins","Mc Donald","KS","Kansas","67745","Central / Mountain","39.785619","-101.370071"
"(785) 696-","Landline","Wabaunsee","Harveyville","KS","Kansas","66431","Central / Mountain","38.789698","-95.963421"
"(913) 927-","Cell Number","Johnson","Overland Park","KS","Kansas","66225","Central","38.899901","-94.831991"
"(620) 786-","Landline","Barton","Great Bend","KS","Kansas","67530","Central / Mountain","38.393567","-98.775074"
"(620) 964-","Landline","Coffey","Le Roy","KS","Kansas","66857","Central / Mountain","38.11486","-95.685599"
"(785) 481-","Landline","Ness","Arnold","KS","Kansas","67515","Central / Mountain","38.479822","-99.916519"
"(785) 239-","Landline","Geary","Junction City","KS","Kansas","66441","Central / Mountain","39.026465","-96.783359"
"(620) 246-","Landline","Barber","Isabel","KS","Kansas","67065","Central / Mountain","37.427542","-98.551564"
"(316) 681-","Landline","Sedgwick","Wichita","KS","Kansas","67206","Central","37.613954","-97.342752"
"(913) 220-","Cell Number","Johnson","Kansas City","KS","Kansas","66160","Central","39.096551","-94.749538"
"(785) 367-","Landline","Osage","Osage City","KS","Kansas","66523","Central / Mountain","38.629558","-95.737112"
"(620) 264-","Cell Number","Pawnee","Larned","KS","Kansas","67550","Central / Mountain","38.194644","-99.10096"
"(620) 669-","Landline","Reno","Hutchinson","KS","Kansas","67501","Central / Mountain","37.954312","-97.88569"
"(620) 826-","Landline","Ford","Bucklin","KS","Kansas","67834","Central / Mountain","37.690525","-99.882532"
"(316) 529-","Landline","Sedgwick","Wichita","KS","Kansas","67206","Central","37.613954","-97.342752"
"(620) 835-","Unknown","Morton","Rolla","KS","Kansas","67954","Central / Mountain","37.081137","-101.60469"
"(913) 240-","Cell Number","Leavenworth","Leavenworth","KS","Kansas","66048","Central","39.279656","-94.982216"
"(785) 797-","Landline","Phillips","Long Island","KS","Kansas","67647","Central / Mountain","39.784708","-99.347075"
"(620) 680-","Cell Number","Rice","Lyons","KS","Kansas","67554","Central / Mountain","38.376979","-98.193184"
"(620) 983-","Landline","Marion","Peabody","KS","Kansas","66866","Central / Mountain","38.134801","-97.003776"
"(620) 224-","Landline","Bourbon","Fort Scott","KS","Kansas","66701","Central / Mountain","37.821629","-94.714793"
"(620) 591-","Cell Number","Lyon","Emporia","KS","Kansas","66801","Central / Mountain","38.434153","-96.152766"
"(620) 221-","Landline","Cowley","Winfield","KS","Kansas","67156","Central / Mountain","37.232126","-96.996334"
"(785) 339-","Landline","Shawnee","Topeka","KS","Kansas","66616","Central / Mountain","39.065477","-95.626357"
"(913) 534-","Landline","Wyandotte","Kansas City","KS","Kansas","66160","Central","39.096551","-94.749538"
"(785) 851-","Cell Number","Jackson","Holton","KS","Kansas","66436","Central / Mountain","39.481012","-95.765586"
"(620) 979-","Landline","Cherokee","Treece","KS","Kansas","66778","Central / Mountain","37.14002","-94.881789"
"(913) 709-","Cell Number","Wyandotte","Kansas City","KS","Kansas","66160","Central","39.096551","-94.749538"
"(316) 291-","Landline","Sedgwick","Wichita","KS","Kansas","67206","Central","37.613954","-97.342752"
"(316) 542-","Landline","Sedgwick","Cheney","KS","Kansas","67025","Central","37.633711","-97.73513"
"(620) 408-","Landline","Ford","Dodge City","KS","Kansas","67801","Central / Mountain","37.690531","-99.902421"
"(620) 442-","Landline","Cowley","Arkansas City","KS","Kansas","67005","Central / Mountain","37.149582","-96.904215"
"(620) 768-","Landline","Bourbon","Fort Scott","KS","Kansas","66701","Central / Mountain","37.821629","-94.714793"
"(785) 201-","Landline","Saline","Salina","KS","Kansas","67401","Central / Mountain","38.823673","-97.642113"
"(316) 312-","Cell Number","Sedgwick","Wichita","KS","Kansas","67206","Central","37.613954","-97.342752"
"(620) 885-","Landline","Clark","Minneola","KS","Kansas","67865","Central / Mountain","37.442546","-100.008811"
"(785) 294-","Cell Number","Nemaha","Seneca","KS","Kansas","66538","Central / Mountain","39.847328","-96.031629"
"(785) 830-","Landline","Douglas","Lawrence","KS","Kansas","66047","Central / Mountain","38.88437","-95.338066"
"(785) 654-","Landline","Osage","Burlingame","KS","Kansas","66413","Central / Mountain","38.73799","-95.815754"
"(620) 249-","Cell Number","Crawford","Pittsburg","KS","Kansas","66762","Central / Mountain","37.448044","-94.819212"
"(620) 222-","Cell Number","Cowley","Winfield","KS","Kansas","67156","Central / Mountain","37.232126","-96.996334"
"(620) 514-","Landline","Sumner","Wellington","KS","Kansas","67152","Central / Mountain","37.280877","-97.42223"
"(785) 334-","Unknown","Nemaha","Seneca","KS","Kansas","66538","Central / Mountain","39.847328","-96.031629"
"(620) 984-","Landline","Barber","Hazelton","KS","Kansas","67061","Central / Mountain","37.114569","-98.410166"
"(913) 541-","Landline","Johnson","Lenexa","KS","Kansas","66215","Central","38.949007","-94.740503"
"(785) 468-","Landline","Pottawatomie","Olsburg","KS","Kansas","66520","Central / Mountain","39.411089","-96.439613"
"(620) 933-","Landline","Pratt","Pratt","KS","Kansas","67124","Central / Mountain","37.63857","-98.758512"
"(785) 439-","Landline","Cloud","Jamestown","KS","Kansas","66948","Central / Mountain","39.598963","-97.86117"
"(785) 460-","Landline","Thomas","Colby","KS","Kansas","67701","Central / Mountain","39.40152","-100.973696"
"(316) 789-","Landline","Sedgwick","Derby","KS","Kansas","67037","Central","37.566129","-97.228475"
"(785) 246-","Landline","Shawnee","Topeka","KS","Kansas","66616","Central / Mountain","39.065477","-95.626357"
"(913) 495-","Landline","Johnson","Lenexa","KS","Kansas","66215","Central","38.949007","-94.740503"
"(913) 976-","Unknown","Wyandotte","Kansas City","KS","Kansas","66160","Central","39.096551","-94.749538"
"(620) 621-","Cell Number","Seward","Liberal","KS","Kansas","67901","Central / Mountain","37.043237","-100.873809"
"(316) 944-","Landline","Sedgwick","Wichita","KS","Kansas","67206","Central","37.613954","-97.342752"
"(785) 635-","Cell Number","Ellis","Hays","KS","Kansas","67601","Central / Mountain","38.878202","-99.334803"
"(316) 978-","Landline","Sedgwick","Wichita","KS","Kansas","67206","Central","37.613954","-97.342752"
"(785) 998-","Landline","Russell","Dorrance","KS","Kansas","67634","Central / Mountain","38.821918","-98.775418"
"(785) 212-","Cell Number","Mcpherson","Lindsborg","KS","Kansas","67456","Central / Mountain","38.497407","-97.628859"
"(316) 292-","Landline","Sedgwick","Wichita","KS","Kansas","67206","Central","37.613954","-97.342752"
"(785) 933-","Landline","Jackson","Netawaka","KS","Kansas","66516","Central / Mountain","39.601523","-95.716332"
"(913) 416-","Cell Number","Leavenworth","Tonganoxie","KS","Kansas","66086","Central","39.115489","-95.084717"
"(785) 727-","Landline","Douglas","Lawrence","KS","Kansas","66047","Central / Mountain","38.88437","-95.338066"
"(316) 772-","Landline","Harvey","Sedgwick","KS","Kansas","67135","Central","37.955789","-97.473214"
"(316) 721-","Landline","Sedgwick","Wichita","KS","Kansas","67206","Central","37.613954","-97.342752"
"(785) 241-","Cell Number","Franklin","Ottawa","KS","Kansas","66067","Central / Mountain","38.564337","-95.282668"
"(785) 676-","Landline","Shawnee","Topeka","KS","Kansas","66616","Central / Mountain","39.065477","-95.626357"
"(316) 612-","Landline","Sedgwick","Wichita","KS","Kansas","67206","Central","37.613954","-97.342752"
"(620) 615-","Cell Number","Reno","Hutchinson","KS","Kansas","67501","Central / Mountain","37.954312","-97.88569"
"(316) 522-","Landline","Sedgwick","Wichita","KS","Kansas","67206","Central","37.613954","-97.342752"
"(913) 702-","Landline","Leavenworth","Leavenworth","KS","Kansas","66048","Central","39.279656","-94.982216"
"(913) 279-","Landline","Wyandotte","Kansas City","KS","Kansas","66160","Central","39.096551","-94.749538"
"(913) 499-","Landline","Wyandotte","Kansas City","KS","Kansas","66160","Central","39.096551","-94.749538"
"(620) 325-","Landline","Wilson","Neodesha","KS","Kansas","66757","Central / Mountain","37.56084","-95.668445"
"(620) 486-","Landline","Reno","Sylvia","KS","Kansas","67581","Central / Mountain","38.006382","-98.121898"
"(620) 770-","Landline","Pratt","Pratt","KS","Kansas","67124","Central / Mountain","37.63857","-98.758512"
"(785) 880-","Cell Number","Douglas","Lawrence","KS","Kansas","66047","Central / Mountain","38.88437","-95.338066"
"(913) 722-","Landline","Wyandotte","Kansas City","KS","Kansas","66160","Central","39.096551","-94.749538"
"(913) 385-","Landline","Johnson","Overland Park","KS","Kansas","66225","Central","38.899901","-94.831991"
"(620) 674-","Landline","Cherokee","Columbus","KS","Kansas","66725","Central / Mountain","37.169887","-94.889857"
"(620) 912-","Landline","Neosho","Erie","KS","Kansas","66733","Central / Mountain","37.580055","-95.29892"
"(785) 833-","Unknown","Saline","Salina","KS","Kansas","67401","Central / Mountain","38.823673","-97.642113"
"(785) 729-","Landline","Republic","Agenda","KS","Kansas","66930","Central / Mountain","39.70438","-97.446521"
"(785) 736-","Landline","Marshall","Home","KS","Kansas","66438","Central / Mountain","39.848788","-96.506345"
"(785) 425-","Landline","Rooks","Stockton","KS","Kansas","67669","Central / Mountain","39.412166","-99.369872"
"(785) 223-","Landline","Geary","Junction City","KS","Kansas","66441","Central / Mountain","39.026465","-96.783359"
"(316) 993-","Cell Number","Sedgwick","Wichita","KS","Kansas","67206","Central","37.613954","-97.342752"
"(620) 381-","Landline","Marion","Marion","KS","Kansas","66861","Central / Mountain","38.284561","-96.965255"
"(620) 567-","Landline","Reno","Partridge","KS","Kansas","67566","Central / Mountain","38.005705","-97.977327"
"(620) 353-","Landline","Grant","Ulysses","KS","Kansas","67880","Central / Mountain","37.562467","-101.308565"
"(913) 567-","Cell Number","Johnson","Overland Park","KS","Kansas","66225","Central","38.899901","-94.831991"
"(785) 436-","Landline","Lincoln","Beverly","KS","Kansas","67423","Central / Mountain","39.045239","-98.209248"
"(785) 730-","Landline","Shawnee","Topeka","KS","Kansas","66616","Central / Mountain","39.065477","-95.626357"
"(785) 589-","Landline","Wabaunsee","Harveyville","KS","Kansas","66431","Central / Mountain","38.789698","-95.963421"
"(913) 642-","Landline","Johnson","Overland Park","KS","Kansas","66225","Central","38.899901","-94.831991"
"(620) 763-","Landline","Neosho","Galesburg","KS","Kansas","66740","Central / Mountain","37.472432","-95.370691"
"(785) 286-","Landline","Shawnee","Topeka","KS","Kansas","66616","Central / Mountain","39.065477","-95.626357"
"(620) 457-","Landline","Crawford","Cherokee","KS","Kansas","66724","Central / Mountain","37.368216","-94.832276"
"(620) 346-","Landline","Chautauqua","Sedan","KS","Kansas","67361","Central / Mountain","37.134351","-96.219212"
"(620) 565-","Landline","Chautauqua","Cedar Vale","KS","Kansas","67024","Central / Mountain","37.130234","-96.444127"
"(785) 989-","Landline","Doniphan","Wathena","KS","Kansas","66090","Central / Mountain","39.806075","-95.083528"
"(913) 639-","Cell Number","Wyandotte","Kansas City","KS","Kansas","66160","Central","39.096551","-94.749538"
"(785) 817-","Landline","Shawnee","Topeka","KS","Kansas","66616","Central / Mountain","39.065477","-95.626357"
"(620) 521-","Cell Number","Finney","Garden City","KS","Kansas","67846","Central / Mountain","38.000771","-100.664407"
"(785) 848-","Landline","Ness","Utica","KS","Kansas","67584","Central / Mountain","38.641893","-100.170396"
"(913) 381-","Landline","Johnson","Overland Park","KS","Kansas","66225","Central","38.899901","-94.831991"
"(620) 332-","Landline","Montgomery","Independence","KS","Kansas","67301","Central / Mountain","37.180636","-95.756197"
"(785) 252-","Landline","Ellsworth","Holyrood","KS","Kansas","67450","Central / Mountain","38.613667","-98.420938"
"(620) 352-","Unknown","Pratt","Iuka","KS","Kansas","67066","Central / Mountain","37.75535","-98.756921"
"(620) 351-","Unknown","Stanton","Johnson","KS","Kansas","67855","Central / Mountain","37.562997","-101.707858"
"(316) 249-","Unknown","Sedgwick","Wichita","KS","Kansas","67206","Central","37.613954","-97.342752"
"(620) 714-","Landline","Montgomery","Independence","KS","Kansas","67301","Central / Mountain","37.180636","-95.756197"
"(620) 379-","Landline","Wichita","Marienthal","KS","Kansas","67863","Central / Mountain","38.483749","-101.283946"
"(620) 225-","Landline","Ford","Dodge City","KS","Kansas","67801","Central / Mountain","37.690531","-99.902421"
"(316) 640-","Cell Number","Sedgwick","Wichita","KS","Kansas","67206","Central","37.613954","-97.342752"
"(913) 677-","Landline","Wyandotte","Kansas City","KS","Kansas","66160","Central","39.096551","-94.749538"
"(620) 451-","Unknown","Hamilton","Syracuse","KS","Kansas","67878","Central / Mountain","37.986428","-101.751732"
"(620) 295-","Unknown","Lane","Dighton","KS","Kansas","67839","Central / Mountain","38.474188","-100.464651"
"(785) 450-","Unknown","Saline","Assaria","KS","Kansas","67416","Central / Mountain","38.688891","-97.59426"
"(913) 547-","Cell Number","Leavenworth","Leavenworth","KS","Kansas","66048","Central","39.279656","-94.982216"
"(620) 718-","Landline","Mcpherson","Mcpherson","KS","Kansas","67460","Central / Mountain","38.376302","-97.670184"
"(785) 338-","Landline","Shawnee","Topeka","KS","Kansas","66616","Central / Mountain","39.065477","-95.626357"
"(620) 836-","Landline","Coffey","Gridley","KS","Kansas","66852","Central / Mountain","38.105539","-95.794536"
"(913) 908-","Cell Number","Johnson","Lenexa","KS","Kansas","66215","Central","38.949007","-94.740503"
"(620) 348-","Landline","Stafford","Macksville","KS","Kansas","67557","Central / Mountain","37.95853","-98.968997"
"(785) 371-","Landline","Douglas","Lawrence","KS","Kansas","66047","Central / Mountain","38.88437","-95.338066"
"(913) 212-","Cell Number","Miami","Louisburg","KS","Kansas","66053","Central","38.587195","-94.689876"
"(913) 297-","Landline","Leavenworth","Leavenworth","KS","Kansas","66048","Central","39.279656","-94.982216"
"(785) 398-","Landline","Rush","Alexander","KS","Kansas","67513","Central / Mountain","38.470116","-99.553222"
"(785) 380-","Landline","Shawnee","Topeka","KS","Kansas","66616","Central / Mountain","39.065477","-95.626357"
"(316) 512-","Landline","Sedgwick","Wichita","KS","Kansas","67206","Central","37.613954","-97.342752"
"(785) 689-","Landline","Phillips","Logan","KS","Kansas","67646","Central / Mountain","39.664328","-99.568879"
"(785) 688-","Landline","Rooks","Plainville","KS","Kansas","67663","Central / Mountain","39.248844","-99.316373"
"(913) 562-","Landline","Johnson","Kansas City","KS","Kansas","66160","Central","39.096551","-94.749538"
"(913) 756-","Landline","Linn","Blue Mound","KS","Kansas","66010","Central","38.089756","-95.007693"
"(785) 741-","Cell Number","Brown","Hiawatha","KS","Kansas","66434","Central / Mountain","39.791367","-95.600405"
"(785) 548-","Landline","Brown","Everest","KS","Kansas","66424","Central / Mountain","39.699141","-95.462469"
"(785) 600-","Unknown","Cloud","Clyde","KS","Kansas","66938","Central / Mountain","39.59127","-97.398639"
"(316) 352-","Landline","Sedgwick","Wichita","KS","Kansas","67206","Central","37.613954","-97.342752"
"(620) 426-","Landline","Kearny","Deerfield","KS","Kansas","67838","Central / Mountain","37.964591","-101.190998"
"(620) 488-","Landline","Sumner","Belle Plaine","KS","Kansas","67013","Central / Mountain","37.359755","-97.287694"
"(620) 228-","Cell Number","Allen","Iola","KS","Kansas","66749","Central / Mountain","37.885757","-95.391057"
"(316) 927-","Landline","Sedgwick","Mulvane","KS","Kansas","67110","Central","37.3732","-97.441654"
"(620) 894-","Cell Number","Rice","Lyons","KS","Kansas","67554","Central / Mountain","38.376979","-98.193184"
"(785) 486-","Landline","Brown","Horton","KS","Kansas","66439","Central / Mountain","39.664076","-95.527212"
"(316) 842-","Landline","Harvey","Newton","KS","Kansas","67114","Central","38.044857","-97.317279"
"(316) 448-","Landline","Sedgwick","Wichita","KS","Kansas","67206","Central","37.613954","-97.342752"
"(620) 266-","Landline","Marion","Hillsboro","KS","Kansas","67063","Central / Mountain","38.347988","-97.205656"
"(620) 313-","Cell Number","Montgomery","Liberty","KS","Kansas","67351","Central / Mountain","37.09922","-95.583588"
"(620) 697-","Landline","Morton","Elkhart","KS","Kansas","67950","Central / Mountain","37.00405","-101.896973"
"(785) 567-","Landline","Norton","Lenora","KS","Kansas","67645","Central / Mountain","39.610503","-100.002777"
"(620) 992-","Cell Number","Barton","Claflin","KS","Kansas","67525","Central / Mountain","38.565876","-98.627068"
"(785) 375-","Cell Number","Geary","Junction City","KS","Kansas","66441","Central / Mountain","39.026465","-96.783359"
"(316) 682-","Landline","Sedgwick","Wichita","KS","Kansas","67206","Central","37.613954","-97.342752"
"(620) 384-","Landline","Hamilton","Syracuse","KS","Kansas","67878","Central / Mountain","37.986428","-101.751732"
"(620) 459-","Landline","Reno","Pretty Prairie","KS","Kansas","67570","Central / Mountain","37.813853","-97.99759"
"(785) 816-","Landline","Franklin","Wellsville","KS","Kansas","66092","Central / Mountain","38.642244","-95.149986"
"(316) 466-","Cell Number","Sedgwick","Wichita","KS","Kansas","67206","Central","37.613954","-97.342752"
"(785) 527-","Landline","Republic","Belleville","KS","Kansas","66935","Central / Mountain","39.836218","-97.601461"
"(316) 516-","Cell Number","Sedgwick","Wichita","KS","Kansas","67206","Central","37.613954","-97.342752"
"(316) 630-","Landline","Sedgwick","Wichita","KS","Kansas","67206","Central","37.613954","-97.342752"
"(913) 893-","Landline","Johnson","Edgerton","KS","Kansas","66021","Central","38.817766","-94.94316"
"(316) 776-","Landline","Butler","Rose Hill","KS","Kansas","67133","Central","37.56297","-97.090019"
"(620) 349-","Unknown","Kiowa","Haviland","KS","Kansas","67059","Central / Mountain","37.612557","-99.192552"
"(620) 260-","Landline","Finney","Garden City","KS","Kansas","67846","Central / Mountain","38.000771","-100.664407"
"(316) 263-","Landline","Sedgwick","Wichita","KS","Kansas","67206","Central","37.613954","-97.342752"
"(785) 336-","Landline","Nemaha","Seneca","KS","Kansas","66538","Central / Mountain","39.847328","-96.031629"
"(785) 505-","Landline","Douglas","Lawrence","KS","Kansas","66047","Central / Mountain","38.88437","-95.338066"
"(913) 981-","Landline","Wyandotte","Kansas City","KS","Kansas","66160","Central","39.096551","-94.749538"
"(620) 507-","Landline","Sumner","Wellington","KS","Kansas","67152","Central / Mountain","37.280877","-97.42223"
"(913) 633-","Unknown","Wyandotte","Kansas City","KS","Kansas","66160","Central","39.096551","-94.749538"
"(913) 530-","Cell Number","Wyandotte","Kansas City","KS","Kansas","66160","Central","39.096551","-94.749538"
"(316) 719-","Unknown","Sedgwick","Wichita","KS","Kansas","67206","Central","37.613954","-97.342752"
"(620) 705-","Landline","Cowley","Winfield","KS","Kansas","67156","Central / Mountain","37.232126","-96.996334"
"(785) 732-","Landline","Republic","Agenda","KS","Kansas","66930","Central / Mountain","39.70438","-97.446521"
"(316) 440-","Landline","Sedgwick","Wichita","KS","Kansas","67206","Central","37.613954","-97.342752"
"(785) 630-","Landline","Clay","Clay Center","KS","Kansas","67432","Central / Mountain","39.349452","-97.164849"
"(913) 256-","Landline","Miami","Osawatomie","KS","Kansas","66064","Central","38.558533","-94.891655"
"(785) 794-","Landline","Jewell","Formoso","KS","Kansas","66942","Central / Mountain","39.778286","-97.993161"
"(785) 557-","Unknown","Osborne","Downs","KS","Kansas","67437","Central / Mountain","39.449456","-98.581432"
"(620) 873-","Landline","Meade","Meade","KS","Kansas","67864","Central / Mountain","37.238357","-100.316583"
"(785) 624-","Landline","Ellis","Hays","KS","Kansas","67601","Central / Mountain","38.878202","-99.334803"
"(620) 425-","Cell Number","Montgomery","Coffeyville","KS","Kansas","67337","Central / Mountain","37.146267","-95.748313"
"(785) 378-","Landline","Jewell","Mankato","KS","Kansas","66956","Central / Mountain","39.787529","-98.20595"
"(785) 718-","Landline","Doniphan","Troy","KS","Kansas","66087","Central / Mountain","39.790573","-95.143417"
"(913) 723-","Landline","Leavenworth","Linwood","KS","Kansas","66052","Central","39.00755","-95.056044"
"(785) 867-","Landline","Anderson","Greeley","KS","Kansas","66033","Central / Mountain","38.346417","-95.139231"
"(620) 479-","Landline","Cherokee","Scammon","KS","Kansas","66773","Central / Mountain","37.280945","-94.809198"
"(913) 422-","Landline","Johnson","Shawnee","KS","Kansas","66216","Central","39.014655","-94.741448"
"(620) 736-","Landline","Greenwood","Severy","KS","Kansas","67137","Central / Mountain","37.61705","-96.225157"
"(316) 609-","Landline","Sedgwick","Wichita","KS","Kansas","67206","Central","37.613954","-97.342752"
"(316) 691-","Landline","Sedgwick","Wichita","KS","Kansas","67206","Central","37.613954","-97.342752"
"(785) 454-","Landline","Osborne","Downs","KS","Kansas","67437","Central / Mountain","39.449456","-98.581432"
"(913) 367-","Landline","Atchison","Atchison","KS","Kansas","66002","Central","39.535948","-95.225098"
"(785) 820-","Landline","Saline","Salina","KS","Kansas","67401","Central / Mountain","38.823673","-97.642113"
"(620) 560-","Landline","Reno","Hutchinson","KS","Kansas","67501","Central / Mountain","37.954312","-97.88569"
"(620) 446-","Cell Number","Cowley","Arkansas City","KS","Kansas","67005","Central / Mountain","37.149582","-96.904215"
"(913) 890-","Landline","Johnson","Lenexa","KS","Kansas","66215","Central","38.949007","-94.740503"
"(620) 254-","Landline","Harper","Attica","KS","Kansas","67009","Central / Mountain","37.224885","-98.210087"
"(785) 572-","Unknown","Marshall","Frankfort","KS","Kansas","66427","Central / Mountain","39.733313","-96.522272"
"(620) 865-","Landline","Gray","Ensign","KS","Kansas","67841","Central / Mountain","37.624913","-100.27543"
"(316) 304-","Cell Number","Sedgwick","Wichita","KS","Kansas","67206","Central","37.613954","-97.342752"
"(620) 753-","Landline","Chase","Matfield Green","KS","Kansas","66862","Central / Mountain","38.303962","-96.597442"
"(620) 454-","Cell Number","Montgomery","Independence","KS","Kansas","67301","Central / Mountain","37.180636","-95.756197"
"(620) 362-","Landline","Crawford","Farlington","KS","Kansas","66734","Central / Mountain","37.624035","-94.798259"
"(316) 821-","Landline","Sedgwick","Wichita","KS","Kansas","67206","Central","37.613954","-97.342752"
"(316) 684-","Landline","Sedgwick","Wichita","KS","Kansas","67206","Central","37.613954","-97.342752"
"(785) 393-","Cell Number","Douglas","Lawrence","KS","Kansas","66047","Central / Mountain","38.88437","-95.338066"
"(620) 253-","Cell Number","Ford","Dodge City","KS","Kansas","67801","Central / Mountain","37.690531","-99.902421"
"(620) 646-","Landline","Meade","Fowler","KS","Kansas","67844","Central / Mountain","37.279983","-100.211034"
"(620) 201-","Cell Number","Gray","Cimarron","KS","Kansas","67835","Central / Mountain","37.803608","-100.338634"
"(620) 829-","Landline","Bourbon","Redfield","KS","Kansas","66769","Central / Mountain","37.836666","-94.880482"
"(785) 526-","Landline","Lincoln","Sylvan Grove","KS","Kansas","67481","Central / Mountain","38.969795","-98.435528"
"(620) 608-","Landline","Wilson","Neodesha","KS","Kansas","66757","Central / Mountain","37.56084","-95.668445"
"(316) 830-","Landline","Harvey","Halstead","KS","Kansas","67056","Central","38.02428","-97.509713"
"(620) 704-","Cell Number","Crawford","Pittsburg","KS","Kansas","66762","Central / Mountain","37.448044","-94.819212"
"(620) 370-","Cell Number","Seward","Liberal","KS","Kansas","67901","Central / Mountain","37.043237","-100.873809"
"(316) 477-","Landline","Butler","Whitewater","KS","Kansas","67154","Central","37.977983","-97.088361"
"(620) 805-","Landline","Finney","Garden City","KS","Kansas","67846","Central / Mountain","38.000771","-100.664407"
"(316) 835-","Landline","Harvey","Halstead","KS","Kansas","67056","Central","38.02428","-97.509713"
"(785) 353-","Landline","Marshall","Home","KS","Kansas","66438","Central / Mountain","39.848788","-96.506345"
"(620) 372-","Landline","Hamilton","Syracuse","KS","Kansas","67878","Central / Mountain","37.986428","-101.751732"
"(620) 489-","Landline","Mcpherson","Windom","KS","Kansas","67491","Central / Mountain","38.389365","-97.694453"
"(913) 731-","Cell Number","Miami","Osawatomie","KS","Kansas","66064","Central","38.558533","-94.891655"
"(913) 314-","Cell Number","Johnson","Overland Park","KS","Kansas","66225","Central","38.899901","-94.831991"
"(620) 876-","Landline","Cowley","Dexter","KS","Kansas","67038","Central / Mountain","37.178743","-96.715776"
"(620) 947-","Landline","Marion","Hillsboro","KS","Kansas","67063","Central / Mountain","38.347988","-97.205656"
"(316) 828-","Landline","Sedgwick","Wichita","KS","Kansas","67206","Central","37.613954","-97.342752"
"(785) 245-","Landline","Washington","Haddam","KS","Kansas","66944","Central / Mountain","39.83551","-97.269445"
"(913) 605-","Unknown","Johnson","Gardner","KS","Kansas","66030","Central","38.814998","-94.94139"
"(316) 573-","Landline","Sedgwick","Wichita","KS","Kansas","67206","Central","37.613954","-97.342752"
"(316) 347-","Unknown","Sedgwick","Wichita","KS","Kansas","67206","Central","37.613954","-97.342752"
"(913) 829-","Landline","Johnson","Olathe","KS","Kansas","66051","Central","38.899901","-94.831991"
"(913) 465-","Cell Number","Johnson","Lenexa","KS","Kansas","66215","Central","38.949007","-94.740503"
"(316) 322-","Landline","Butler","El Dorado","KS","Kansas","67042","Central","37.830491","-96.865969"
"(913) 766-","Landline","Wyandotte","Kansas City","KS","Kansas","66160","Central","39.096551","-94.749538"
"(620) 595-","Unknown","Stevens","Moscow","KS","Kansas","67952","Central / Mountain","37.325308","-101.205904"
"(913) 768-","Landline","Johnson","Olathe","KS","Kansas","66051","Central","38.899901","-94.831991"
"(785) 449-","Landline","Wabaunsee","Eskridge","KS","Kansas","66423","Central / Mountain","38.858895","-96.145799"
"(785) 747-","Landline","Washington","Greenleaf","KS","Kansas","66943","Central / Mountain","39.687997","-96.975097"
"(785) 543-","Landline","Phillips","Phillipsburg","KS","Kansas","67661","Central / Mountain","39.779113","-99.346302"
"(785) 800-","Unknown","Ottawa","Delphos","KS","Kansas","67436","Central / Mountain","39.263098","-97.714625"
"(620) 385-","Landline","Ford","Spearville","KS","Kansas","67876","Central / Mountain","37.729884","-99.715817"
"(316) 631-","Landline","Sedgwick","Wichita","KS","Kansas","67206","Central","37.613954","-97.342752"
"(785) 669-","Landline","Norton","Almena","KS","Kansas","67622","Central / Mountain","39.891272","-99.711523"
"(785) 991-","Cell Number","Brown","Horton","KS","Kansas","66439","Central / Mountain","39.664076","-95.527212"
"(785) 906-","Cell Number","Mcpherson","Lindsborg","KS","Kansas","67456","Central / Mountain","38.497407","-97.628859"
"(785) 995-","Unknown","Sherman","Goodland","KS","Kansas","67735","Central / Mountain","39.358123","-101.798885"
"(316) 641-","Cell Number","Sedgwick","Wichita","KS","Kansas","67206","Central","37.613954","-97.342752"
"(620) 588-","Landline","Barton","Claflin","KS","Kansas","67525","Central / Mountain","38.565876","-98.627068"
"(316) 351-","Landline","Sedgwick","Derby","KS","Kansas","67037","Central","37.566129","-97.228475"
"(785) 584-","Landline","Shawnee","Rossville","KS","Kansas","66533","Central / Mountain","39.158392","-95.959031"
"(785) 261-","Landline","Ellis","Hays","KS","Kansas","67601","Central / Mountain","38.878202","-99.334803"
"(913) 573-","Landline","Wyandotte","Kansas City","KS","Kansas","66160","Central","39.096551","-94.749538"
"(785) 358-","Landline","Republic","Munden","KS","Kansas","66959","Central / Mountain","39.860279","-97.498488"
"(913) 742-","Unknown","Wyandotte","Kansas City","KS","Kansas","66160","Central","39.096551","-94.749538"
"(316) 425-","Landline","Sedgwick","Wichita","KS","Kansas","67206","Central","37.613954","-97.342752"
"(913) 288-","Landline","Wyandotte","Kansas City","KS","Kansas","66160","Central","39.096551","-94.749538"
"(785) 595-","Landline","Doniphan","White Cloud","KS","Kansas","66094","Central / Mountain","39.873744","-95.29357"
"(785) 515-","Unknown","Saline","Salina","KS","Kansas","67401","Central / Mountain","38.823673","-97.642113"
"(913) 894-","Landline","Johnson","Lenexa","KS","Kansas","66215","Central","38.949007","-94.740503"
"(620) 438-","Landline","Cowley","Burden","KS","Kansas","67019","Central / Mountain","37.37062","-96.759983"
"(785) 489-","Landline","Anderson","Westphalia","KS","Kansas","66093","Central / Mountain","38.210603","-95.457728"
"(620) 663-","Landline","Reno","Hutchinson","KS","Kansas","67501","Central / Mountain","37.954312","-97.88569"
"(913) 406-","Cell Number","Wyandotte","Kansas City","KS","Kansas","66160","Central","39.096551","-94.749538"
"(913) 301-","Landline","Leavenworth","Linwood","KS","Kansas","66052","Central","39.00755","-95.056044"
"(620) 843-","Landline","Butler","Latham","KS","Kansas","67072","Central / Mountain","37.606889","-96.658181"
"(913) 839-","Landline","Johnson","Olathe","KS","Kansas","66051","Central","38.899901","-94.831991"
"(913) 617-","Cell Number","Wyandotte","Kansas City","KS","Kansas","66160","Central","39.096551","-94.749538"
"(785) 927-","Unknown","Marshall","Home","KS","Kansas","66438","Central / Mountain","39.848788","-96.506345"
"(785) 278-","Landline","Jewell","Webber","KS","Kansas","66970","Central / Mountain","39.935373","-98.035371"
"(620) 509-","Landline","Rice","Lyons","KS","Kansas","67554","Central / Mountain","38.376979","-98.193184"
"(785) 296-","Landline","Shawnee","Topeka","KS","Kansas","66616","Central / Mountain","39.065477","-95.626357"
"(785) 779-","Landline","Smith","Kensington","KS","Kansas","66951","Central / Mountain","39.783621","-98.796287"
"(316) 219-","Landline","Sedgwick","Wichita","KS","Kansas","67206","Central","37.613954","-97.342752"
"(785) 565-","Landline","Riley","Manhattan","KS","Kansas","66502","Central / Mountain","39.209375","-96.564589"
"(785) 204-","Landline","Anderson","Garnett","KS","Kansas","66032","Central / Mountain","38.232767","-95.286458"
"(620) 839-","Landline","Neosho","Thayer","KS","Kansas","66776","Central / Mountain","37.480322","-95.452585"
"(316) 655-","Cell Number","Sedgwick","Wichita","KS","Kansas","67206","Central","37.613954","-97.342752"
"(785) 274-","Landline","Shawnee","Topeka","KS","Kansas","66616","Central / Mountain","39.065477","-95.626357"
"(785) 875-","Landline","Jewell","Webber","KS","Kansas","66970","Central / Mountain","39.935373","-98.035371"
"(620) 339-","Landline","Ford","Dodge City","KS","Kansas","67801","Central / Mountain","37.690531","-99.902421"
"(316) 558-","Landline","Sedgwick","Mulvane","KS","Kansas","67110","Central","37.3732","-97.441654"
"(316) 209-","Cell Number","Sedgwick","Wichita","KS","Kansas","67206","Central","37.613954","-97.342752"
"(913) 529-","Landline","Wyandotte","Kansas City","KS","Kansas","66160","Central","39.096551","-94.749538"
"(785) 265-","Landline","Washington","Morrowville","KS","Kansas","66958","Central / Mountain","39.885808","-97.172061"
"(620) 566-","Cell Number","Barton","Ellinwood","KS","Kansas","67526","Central / Mountain","38.46396","-98.733001"
"(316) 452-","Landline","Butler","El Dorado","KS","Kansas","67042","Central","37.830491","-96.865969"
"(620) 582-","Landline","Comanche","Coldwater","KS","Kansas","67029","Central / Mountain","37.25486","-99.322574"
"(620) 506-","Landline","Cowley","Arkansas City","KS","Kansas","67005","Central / Mountain","37.149582","-96.904215"
"(620) 342-","Landline","Lyon","Emporia","KS","Kansas","66801","Central / Mountain","38.434153","-96.152766"
"(316) 650-","Cell Number","Sedgwick","Wichita","KS","Kansas","67206","Central","37.613954","-97.342752"
"(913) 383-","Landline","Johnson","Overland Park","KS","Kansas","66225","Central","38.899901","-94.831991"
"(620) 435-","Landline","Sumner","Argonia","KS","Kansas","67004","Central / Mountain","37.248959","-97.690887"
"(785) 342-","Cell Number","Saline","Salina","KS","Kansas","67401","Central / Mountain","38.823673","-97.642113"
"(620) 259-","Landline","Reno","Hutchinson","KS","Kansas","67501","Central / Mountain","37.954312","-97.88569"
"(913) 489-","Landline","Johnson","Olathe","KS","Kansas","66051","Central","38.899901","-94.831991"
"(316) 285-","Unknown","Sedgwick","Wichita","KS","Kansas","67206","Central","37.613954","-97.342752"
"(785) 419-","Unknown","Doniphan","Wathena","KS","Kansas","66090","Central / Mountain","39.806075","-95.083528"
"(913) 937-","Landline","Miami","Paola","KS","Kansas","66071","Central","38.577932","-94.880328"
"(785) 690-","Landline","Douglas","Eudora","KS","Kansas","66025","Central / Mountain","38.879142","-95.125903"
"(913) 549-","Landline","Johnson","Kansas City","KS","Kansas","66160","Central","39.096551","-94.749538"
"(913) 982-","Landline","Wyandotte","Kansas City","KS","Kansas","66160","Central","39.096551","-94.749538"
"(620) 402-","Landline","Cowley","Winfield","KS","Kansas","67156","Central / Mountain","37.232126","-96.996334"
"(913) 724-","Landline","Leavenworth","Basehor","KS","Kansas","66007","Central","39.133448","-94.947234"
"(316) 383-","Landline","Sedgwick","Wichita","KS","Kansas","67206","Central","37.613954","-97.342752"
"(913) 342-","Landline","Wyandotte","Kansas City","KS","Kansas","66160","Central","39.096551","-94.749538"
"(785) 982-","Unknown","Doniphan","Troy","KS","Kansas","66087","Central / Mountain","39.790573","-95.143417"
"(620) 277-","Landline","Finney","Holcomb","KS","Kansas","67851","Central / Mountain","38.098129","-100.961803"
"(785) 531-","Cell Number","Ellsworth","Ellsworth","KS","Kansas","67439","Central / Mountain","38.696579","-98.205437"
"(913) 953-","Unknown","Wyandotte","Kansas City","KS","Kansas","66160","Central","39.096551","-94.749538"
"(913) 375-","Landline","Wyandotte","Kansas City","KS","Kansas","66160","Central","39.096551","-94.749538"
"(785) 373-","Landline","Mitchell","Tipton","KS","Kansas","67485","Central / Mountain","39.339425","-98.470261"
"(316) 218-","Landline","Butler","Andover","KS","Kansas","67002","Central","37.701532","-97.098431"
"(785) 545-","Landline","Mitchell","Glen Elder","KS","Kansas","67446","Central / Mountain","39.501034","-98.302257"
"(620) 373-","Landline","Hamilton","Kendall","KS","Kansas","67857","Central / Mountain","37.999701","-101.785968"
"(620) 350-","Unknown","Mcpherson","Canton","KS","Kansas","67428","Central / Mountain","38.392631","-97.426953"
"(620) 334-","Unknown","Mcpherson","Galva","KS","Kansas","67443","Central / Mountain","38.382827","-97.47325"
"(785) 262-","Landline","Cloud","Concordia","KS","Kansas","66901","Central / Mountain","39.551634","-97.656764"
"(785) 831-","Landline","Mitchell","Beloit","KS","Kansas","67420","Central / Mountain","39.441631","-98.119189"
"(620) 869-","Landline","Harvey","Hesston","KS","Kansas","67062","Central / Mountain","38.137404","-97.443222"
"(785) 754-","Landline","Gove","Quinter","KS","Kansas","67752","Central / Mountain","39.063613","-100.238001"
"(620) 269-","Landline","Chautauqua","Cedar Vale","KS","Kansas","67024","Central / Mountain","37.130234","-96.444127"
"(913) 553-","Unknown","Wyandotte","Kansas City","KS","Kansas","66160","Central","39.096551","-94.749538"
"(913) 351-","Landline","Leavenworth","Lansing","KS","Kansas","66043","Central","39.233204","-94.883026"
"(913) 682-","Landline","Leavenworth","Leavenworth","KS","Kansas","66048","Central","39.279656","-94.982216"
"(913) 217-","Landline","Johnson","Kansas City","KS","Kansas","66160","Central","39.096551","-94.749538"
"(785) 292-","Landline","Marshall","Frankfort","KS","Kansas","66427","Central / Mountain","39.733313","-96.522272"
"(316) 323-","Landline","Butler","El Dorado","KS","Kansas","67042","Central","37.830491","-96.865969"
"(785) 236-","Cell Number","Riley","Manhattan","KS","Kansas","66502","Central / Mountain","39.209375","-96.564589"
"(785) 876-","Landline","Jefferson","Ozawkie","KS","Kansas","66070","Central / Mountain","39.17715","-95.456501"
"(785) 502-","Unknown","Saline","Salina","KS","Kansas","67401","Central / Mountain","38.823673","-97.642113"
"(620) 237-","Landline","Allen","Moran","KS","Kansas","66755","Central / Mountain","37.914394","-95.197671"
"(316) 847-","Landline","Sedgwick","Wichita","KS","Kansas","67206","Central","37.613954","-97.342752"
"(620) 966-","Landline","Reno","Hutchinson","KS","Kansas","67501","Central / Mountain","37.954312","-97.88569"
"(620) 623-","Landline","Hodgeman","Hanston","KS","Kansas","67849","Central / Mountain","38.121492","-99.709532"
"(913) 390-","Landline","Johnson","Olathe","KS","Kansas","66051","Central","38.899901","-94.831991"
"(913) 487-","Landline","Johnson","Lenexa","KS","Kansas","66215","Central","38.949007","-94.740503"
"(913) 255-","Landline","Atchison","Lancaster","KS","Kansas","66041","Central","39.536445","-95.306304"
"(785) 759-","Landline","Osage","Quenemo","KS","Kansas","66528","Central / Mountain","38.634939","-95.55521"
"(316) 523-","Landline","Sedgwick","Wichita","KS","Kansas","67206","Central","37.613954","-97.342752"
"(316) 531-","Landline","Sedgwick","Garden Plain","KS","Kansas","67050","Central","37.674242","-97.654917"
"(913) 707-","Cell Number","Johnson","Lenexa","KS","Kansas","66215","Central","38.949007","-94.740503"
"(316) 524-","Landline","Sedgwick","Wichita","KS","Kansas","67206","Central","37.613954","-97.342752"
"(913) 758-","Landline","Leavenworth","Leavenworth","KS","Kansas","66048","Central","39.279656","-94.982216"
"(913) 627-","Landline","Wyandotte","Kansas City","KS","Kansas","66160","Central","39.096551","-94.749538"
"(316) 215-","Landline","Harvey","Sedgwick","KS","Kansas","67135","Central","37.955789","-97.473214"
"(620) 797-","Cell Number","Barton","Great Bend","KS","Kansas","67530","Central / Mountain","38.393567","-98.775074"
"(785) 742-","Landline","Brown","Hiawatha","KS","Kansas","66434","Central / Mountain","39.791367","-95.600405"
"(620) 230-","Landline","Crawford","Pittsburg","KS","Kansas","66762","Central / Mountain","37.448044","-94.819212"
"(620) 547-","Landline","Crawford","Hepler","KS","Kansas","66746","Central / Mountain","37.638333","-94.942113"
"(785) 379-","Landline","Shawnee","Topeka","KS","Kansas","66616","Central / Mountain","39.065477","-95.626357"
"(620) 217-","Cell Number","Harvey","Hesston","KS","Kansas","67062","Central / Mountain","38.137404","-97.443222"
"(620) 837-","Landline","Harvey","Walton","KS","Kansas","67151","Central / Mountain","38.123189","-97.244464"
"(913) 236-","Landline","Wyandotte","Kansas City","KS","Kansas","66160","Central","39.096551","-94.749538"
"(620) 790-","Landline","Sumner","Belle Plaine","KS","Kansas","67013","Central / Mountain","37.359755","-97.287694"
"(620) 538-","Landline","Reno","Arlington","KS","Kansas","67514","Central / Mountain","37.829877","-98.196898"
"(785) 586-","Landline","Thomas","Levant","KS","Kansas","67743","Central / Mountain","39.413268","-101.148818"
"(785) 893-","Cell Number","Franklin","Ottawa","KS","Kansas","66067","Central / Mountain","38.564337","-95.282668"
"(316) 262-","Landline","Sedgwick","Wichita","KS","Kansas","67206","Central","37.613954","-97.342752"
"(913) 204-","Landline","Jefferson","Mc Louth","KS","Kansas","66054","Central","39.198095","-95.231788"
"(620) 939-","Landline","Bourbon","Bronson","KS","Kansas","66716","Central / Mountain","37.874455","-95.02624"
"(316) 729-","Landline","Sedgwick","Wichita","KS","Kansas","67206","Central","37.613954","-97.342752"
"(620) 670-","Landline","Crawford","Pittsburg","KS","Kansas","66762","Central / Mountain","37.448044","-94.819212"
"(785) 497-","Landline","Morris","Wilsey","KS","Kansas","66873","Central / Mountain","38.682093","-96.663865"
"(913) 364-","Landline","Leavenworth","Leavenworth","KS","Kansas","66048","Central","39.279656","-94.982216"
"(316) 925-","Landline","Sedgwick","Kechi","KS","Kansas","67067","Central","37.810488","-97.259353"
"(316) 395-","Landline","Sedgwick","Andale","KS","Kansas","67001","Central","37.779733","-97.636619"
"(785) 229-","Landline","Franklin","Ottawa","KS","Kansas","66067","Central / Mountain","38.564337","-95.282668"
"(913) 461-","Cell Number","Johnson","Lenexa","KS","Kansas","66215","Central","38.949007","-94.740503"
"(785) 544-","Landline","Brown","Robinson","KS","Kansas","66532","Central / Mountain","39.818216","-95.456658"
"(316) 773-","Landline","Sedgwick","Wichita","KS","Kansas","67206","Central","37.613954","-97.342752"
"(785) 694-","Landline","Thomas","Brewster","KS","Kansas","67732","Central / Mountain","39.358974","-101.061905"
"(316) 303-","Landline","Sedgwick","Wichita","KS","Kansas","67206","Central","37.613954","-97.342752"
"(316) 350-","Landline","Butler","Augusta","KS","Kansas","67010","Central","37.674347","-96.970128"
"(785) 822-","Landline","Saline","Salina","KS","Kansas","67401","Central / Mountain","38.823673","-97.642113"
"(913) 831-","Landline","Wyandotte","Kansas City","KS","Kansas","66160","Central","39.096551","-94.749538"
"(913) 306-","Cell Number","Leavenworth","Leavenworth","KS","Kansas","66048","Central","39.279656","-94.982216"
"(620) 575-","Landline","Grant","Ulysses","KS","Kansas","67880","Central / Mountain","37.562467","-101.308565"
"(913) 928-","Landline","Johnson","Lenexa","KS","Kansas","66215","Central","38.949007","-94.740503"
"(785) 562-","Landline","Marshall","Marysville","KS","Kansas","66508","Central / Mountain","39.863544","-96.617219"
"(620) 675-","Landline","Haskell","Sublette","KS","Kansas","67877","Central / Mountain","37.482236","-100.848783"
"(913) 558-","Cell Number","Wyandotte","Kansas City","KS","Kansas","66160","Central","39.096551","-94.749538"
"(785) 969-","Cell Number","Shawnee","Topeka","KS","Kansas","66616","Central / Mountain","39.065477","-95.626357"
"(785) 712-","Cell Number","Riley","Manhattan","KS","Kansas","66502","Central / Mountain","39.209375","-96.564589"
"(913) 219-","Cell Number","Johnson","Lenexa","KS","Kansas","66215","Central","38.949007","-94.740503"
"(785) 346-","Landline","Osborne","Osborne","KS","Kansas","67473","Central / Mountain","39.385738","-98.795417"
