"Prefix","Usage","County","City","ShortState","LongState","Zip","Timezone","Latitude","Longitude"
"(313) 331-","Landline","Wayne","Detroit","MI","Michigan","48210","Eastern","42.326937","-83.148424"
"(989) 731-","Landline","Otsego","Gaylord","MI","Michigan","49735","Eastern","45.000937","-84.624586"
"(517) 688-","Landline","Hillsdale","Jerome","MI","Michigan","49249","Eastern","42.029587","-84.468662"
"(313) 717-","Landline","Wayne","Detroit","MI","Michigan","48210","Eastern","42.326937","-83.148424"
"(313) 415-","Cell Number","Wayne","Melvindale","MI","Michigan","48122","Eastern","42.353686","-83.223427"
"(248) 284-","Landline","Oakland","Pontiac","MI","Michigan","48340","Eastern","42.670272","-83.289036"
"(810) 338-","Cell Number","Lapeer","Lapeer","MI","Michigan","48446","Eastern","43.121459","-83.319558"
"(734) 876-","Landline","Monroe","Maybee","MI","Michigan","48159","Eastern","42.041832","-83.557254"
"(989) 665-","Landline","Tuscola","Gagetown","MI","Michigan","48735","Eastern","43.599096","-83.340629"
"(248) 235-","Landline","Oakland","Royal Oak","MI","Michigan","48073","Eastern","42.5216","-83.163477"
"(517) 790-","Landline","Hillsdale","Jonesville","MI","Michigan","49250","Eastern","41.898745","-84.585577"
"(313) 399-","Landline","Wayne","Detroit","MI","Michigan","48210","Eastern","42.326937","-83.148424"
"(313) 804-","Cell Number","Wayne","Detroit","MI","Michigan","48210","Eastern","42.326937","-83.148424"
"(616) 881-","Cell Number","Kent","Grand Rapids","MI","Michigan","49512","Eastern","42.880192","-85.535214"
"(313) 385-","Landline","Wayne","Melvindale","MI","Michigan","48122","Eastern","42.353686","-83.223427"
"(616) 735-","Landline","Kent","Grand Rapids","MI","Michigan","49512","Eastern","42.880192","-85.535214"
"(989) 727-","Landline","Alpena","Hubbard Lake","MI","Michigan","49747","Eastern","44.909723","-83.608911"
"(248) 547-","Landline","Oakland","Royal Oak","MI","Michigan","48073","Eastern","42.5216","-83.163477"
"(810) 661-","Cell Number","Genesee","Flint","MI","Michigan","48551","Eastern","42.978995","-83.713124"
"(517) 794-","Cell Number","Ingham","Lansing","MI","Michigan","48913","Eastern","42.599184","-84.371973"
"(734) 695-","Unknown","Washtenaw","Ypsilanti","MI","Michigan","48197","Eastern","42.202139","-83.620494"
"(586) 372-","Landline","Macomb","Romeo","MI","Michigan","48065","Eastern","42.839951","-83.038836"
"(231) 789-","Landline","Benzie","Frankfort","MI","Michigan","49635","Eastern","44.613058","-86.177255"
"(269) 422-","Landline","Berrien","Baroda","MI","Michigan","49101","Eastern","41.949647","-86.475504"
"(734) 842-","Landline","Wayne","New Boston","MI","Michigan","48164","Eastern","42.135225","-83.390422"
"(810) 315-","Landline","Lapeer","Dryden","MI","Michigan","48428","Eastern","42.937629","-83.154685"
"(586) 349-","Landline","Macomb","Mount Clemens","MI","Michigan","48043","Eastern","42.597984","-82.877669"
"(231) 433-","Unknown","Missaukee","Merritt","MI","Michigan","49667","Eastern","44.343261","-84.944639"
"(616) 405-","Cell Number","Ottawa","Holland","MI","Michigan","49424","Eastern","42.924578","-86.121901"
"(517) 745-","Cell Number","Jackson","Jackson","MI","Michigan","49201","Eastern","42.248979","-84.421104"
"(734) 747-","Landline","Washtenaw","Ann Arbor","MI","Michigan","48113","Eastern","42.253502","-83.836571"
"(231) 499-","Cell Number","Grand Traverse","Traverse City","MI","Michigan","49685","Eastern","44.816178","-85.575147"
"(906) 279-","Landline","Ontonagon","Bruce Crossing","MI","Michigan","49912","Eastern / Central","46.475105","-89.222897"
"(231) 532-","Cell Number","Kalkaska","Kalkaska","MI","Michigan","49646","Eastern","44.697144","-85.092905"
"(906) 295-","Cell Number","Menominee","Powers","MI","Michigan","49874","Eastern / Central","45.703409","-87.512409"
"(810) 686-","Landline","Genesee","Clio","MI","Michigan","48420","Eastern","43.170497","-83.707374"
"(248) 766-","Landline","Oakland","Pontiac","MI","Michigan","48340","Eastern","42.670272","-83.289036"
"(734) 494-","Landline","Wayne","Romulus","MI","Michigan","48174","Eastern","42.20284","-83.351255"
"(269) 277-","Cell Number","Berrien","Benton Harbor","MI","Michigan","49022","Eastern","42.14338","-86.348568"
"(810) 878-","Landline","Sanilac","Croswell","MI","Michigan","48422","Eastern","43.252807","-82.644104"
"(989) 842-","Landline","Gratiot","Breckenridge","MI","Michigan","48615","Eastern","43.38631","-84.46894"
"(231) 333-","Landline","Cheboygan","Cheboygan","MI","Michigan","49721","Eastern","45.592842","-84.468639"
"(906) 367-","Landline","Iron","Iron River","MI","Michigan","49935","Eastern / Central","46.12047","-88.618995"
"(586) 404-","Unknown","Macomb","Roseville","MI","Michigan","48066","Eastern","42.509635","-82.936069"
"(734) 450-","Cell Number","Washtenaw","Ypsilanti","MI","Michigan","48197","Eastern","42.202139","-83.620494"
"(313) 924-","Landline","Wayne","Detroit","MI","Michigan","48210","Eastern","42.326937","-83.148424"
"(517) 849-","Landline","Hillsdale","Jonesville","MI","Michigan","49250","Eastern","41.898745","-84.585577"
"(734) 727-","Landline","Wayne","Wayne","MI","Michigan","48184","Eastern","42.263487","-83.395975"
"(989) 719-","Landline","Lapeer","Clifford","MI","Michigan","48727","Eastern","43.28298","-83.178182"
"(989) 324-","Cell Number","Bay","Pinconning","MI","Michigan","48650","Eastern","43.839179","-84.038715"
"(313) 294-","Landline","Wayne","Lincoln Park","MI","Michigan","48146","Eastern","42.242038","-83.180375"
"(517) 515-","Unknown","Ingham","Lansing","MI","Michigan","48913","Eastern","42.599184","-84.371973"
"(734) 345-","Landline","Wayne","Belleville","MI","Michigan","48112","Eastern","42.239933","-83.150823"
"(231) 414-","Landline","Newaygo","Newaygo","MI","Michigan","49337","Eastern","43.444927","-85.73898"
"(231) 683-","Landline","Muskegon","Muskegon","MI","Michigan","49443","Eastern","43.295493","-86.468853"
"(313) 872-","Landline","Wayne","Detroit","MI","Michigan","48210","Eastern","42.326937","-83.148424"
"(231) 344-","Landline","Emmet","Petoskey","MI","Michigan","49770","Eastern","45.355915","-84.913255"
"(810) 712-","Cell Number","Sanilac","Croswell","MI","Michigan","48422","Eastern","43.252807","-82.644104"
"(989) 915-","Landline","Crawford","Grayling","MI","Michigan","49739","Eastern","44.682996","-84.610441"
"(517) 325-","Landline","Ingham","Lansing","MI","Michigan","48913","Eastern","42.599184","-84.371973"
"(313) 706-","Cell Number","Wayne","Detroit","MI","Michigan","48210","Eastern","42.326937","-83.148424"
"(269) 764-","Landline","Van Buren","Covert","MI","Michigan","49043","Eastern","42.28054","-86.266608"
"(734) 748-","Cell Number","Wayne","Livonia","MI","Michigan","48151","Eastern","42.239933","-83.150823"
"(231) 839-","Landline","Missaukee","Lake City","MI","Michigan","49651","Eastern","44.376692","-85.0946"
"(989) 298-","Landline","Saginaw","Saginaw","MI","Michigan","48608","Eastern","43.348535","-84.032612"
"(734) 827-","Landline","Washtenaw","Ann Arbor","MI","Michigan","48113","Eastern","42.253502","-83.836571"
"(231) 386-","Landline","Leelanau","Northport","MI","Michigan","49670","Eastern","45.12216","-85.61847"
"(734) 535-","Landline","Wayne","Flat Rock","MI","Michigan","48134","Eastern","42.116811","-83.300439"
"(734) 257-","Landline","Washtenaw","Whitmore Lake","MI","Michigan","48189","Eastern","42.386914","-83.783736"
"(517) 602-","Landline","Livingston","Howell","MI","Michigan","48843","Eastern","42.630687","-83.910266"
"(810) 973-","Landline","Lapeer","Lapeer","MI","Michigan","48446","Eastern","43.121459","-83.319558"
"(734) 639-","Landline","Monroe","Monroe","MI","Michigan","48161","Eastern","41.928024","-83.430682"
"(248) 857-","Landline","Oakland","Pontiac","MI","Michigan","48340","Eastern","42.670272","-83.289036"
"(734) 264-","Landline","Monroe","Monroe","MI","Michigan","48161","Eastern","41.928024","-83.430682"
"(616) 794-","Landline","Ionia","Belding","MI","Michigan","48809","Eastern","42.98004","-85.128727"
"(810) 588-","Landline","Livingston","Brighton","MI","Michigan","48116","Eastern","42.529541","-83.776055"
"(231) 639-","Landline","Benzie","Beulah","MI","Michigan","49617","Eastern","44.630634","-86.002509"
"(810) 652-","Landline","Genesee","Davison","MI","Michigan","48423","Eastern","43.041994","-83.622843"
"(616) 545-","Cell Number","Ionia","Orleans","MI","Michigan","48865","Eastern","43.078789","-85.102387"
"(269) 385-","Landline","Kalamazoo","Kalamazoo","MI","Michigan","49019","Eastern","42.245412","-85.529858"
"(586) 202-","Cell Number","Macomb","Warren","MI","Michigan","48089","Eastern","42.474786","-82.995121"
"(616) 371-","Landline","Ottawa","Hudsonville","MI","Michigan","49426","Eastern","42.861575","-85.935917"
"(734) 777-","Cell Number","Monroe","Monroe","MI","Michigan","48161","Eastern","41.928024","-83.430682"
"(517) 341-","Landline","Ingham","Lansing","MI","Michigan","48913","Eastern","42.599184","-84.371973"
"(616) 710-","Cell Number","Kent","Grand Rapids","MI","Michigan","49512","Eastern","42.880192","-85.535214"
"(586) 753-","Landline","Macomb","Center Line","MI","Michigan","48015","Eastern","42.480186","-83.027221"
"(586) 713-","Cell Number","Macomb","Mount Clemens","MI","Michigan","48043","Eastern","42.597984","-82.877669"
"(586) 718-","Cell Number","Macomb","Warren","MI","Michigan","48089","Eastern","42.474786","-82.995121"
"(313) 806-","Cell Number","Wayne","Detroit","MI","Michigan","48210","Eastern","42.326937","-83.148424"
"(586) 532-","Landline","Macomb","Utica","MI","Michigan","48317","Eastern","42.641276","-83.05043"
"(616) 952-","Unknown","Kent","Kent City","MI","Michigan","49330","Eastern","43.23506","-85.670248"
"(248) 534-","Landline","Oakland","Holly","MI","Michigan","48442","Eastern","42.775922","-83.579384"
"(586) 441-","Unknown","Macomb","Roseville","MI","Michigan","48066","Eastern","42.509635","-82.936069"
"(248) 317-","Cell Number","Oakland","Royal Oak","MI","Michigan","48073","Eastern","42.5216","-83.163477"
"(586) 381-","Cell Number","Macomb","Warren","MI","Michigan","48089","Eastern","42.474786","-82.995121"
"(586) 308-","Cell Number","Macomb","Roseville","MI","Michigan","48066","Eastern","42.509635","-82.936069"
"(734) 829-","Landline","Washtenaw","Ypsilanti","MI","Michigan","48197","Eastern","42.202139","-83.620494"
"(313) 420-","Landline","Wayne","Detroit","MI","Michigan","48210","Eastern","42.326937","-83.148424"
"(906) 452-","Landline","Alger","Wetmore","MI","Michigan","49895","Eastern / Central","46.291471","-86.671351"
"(810) 426-","Landline","Saint Clair","Marine City","MI","Michigan","48039","Eastern","42.68586","-82.549857"
"(231) 462-","Landline","Mason","Fountain","MI","Michigan","49410","Eastern","44.030126","-86.142483"
"(989) 343-","Landline","Ogemaw","West Branch","MI","Michigan","48661","Eastern","44.33095","-84.202733"
"(313) 244-","Cell Number","Oakland","Detroit","MI","Michigan","48210","Eastern","42.326937","-83.148424"
"(586) 436-","Cell Number","Macomb","Warren","MI","Michigan","48089","Eastern","42.474786","-82.995121"
"(269) 903-","Landline","Kalamazoo","Kalamazoo","MI","Michigan","49019","Eastern","42.245412","-85.529858"
"(248) 414-","Landline","Oakland","Royal Oak","MI","Michigan","48073","Eastern","42.5216","-83.163477"
"(313) 217-","Cell Number","Wayne","Detroit","MI","Michigan","48210","Eastern","42.326937","-83.148424"
"(734) 972-","Cell Number","Washtenaw","Ann Arbor","MI","Michigan","48113","Eastern","42.253502","-83.836571"
"(269) 433-","Unknown","Saint Joseph","Constantine","MI","Michigan","49042","Eastern","41.936948","-85.533122"
"(313) 239-","Cell Number","Wayne","Detroit","MI","Michigan","48210","Eastern","42.326937","-83.148424"
"(269) 203-","Landline","Kalamazoo","Richland","MI","Michigan","49083","Eastern","42.376138","-85.454755"
"(231) 378-","Landline","Benzie","Thompsonville","MI","Michigan","49683","Eastern","44.58678","-85.931969"
"(313) 608-","Cell Number","Wayne","Detroit","MI","Michigan","48210","Eastern","42.326937","-83.148424"
"(616) 395-","Cell Number","Ottawa","Holland","MI","Michigan","49424","Eastern","42.924578","-86.121901"
"(810) 893-","Unknown","Genesee","Flint","MI","Michigan","48551","Eastern","42.978995","-83.713124"
"(616) 743-","Landline","Ottawa","Grand Haven","MI","Michigan","49417","Eastern","43.008786","-86.129031"
"(248) 247-","Landline","Oakland","Troy","MI","Michigan","48007","Eastern","42.606088","-83.297593"
"(734) 728-","Landline","Wayne","Wayne","MI","Michigan","48184","Eastern","42.263487","-83.395975"
"(248) 693-","Landline","Oakland","Lake Orion","MI","Michigan","48361","Eastern","42.660091","-83.3863"
"(616) 439-","Unknown","Kent","Cedar Springs","MI","Michigan","49319","Eastern","43.175953","-85.514105"
"(989) 297-","Cell Number","Bay","Bay City","MI","Michigan","48708","Eastern","43.559572","-83.820876"
"(906) 485-","Landline","Marquette","Ishpeming","MI","Michigan","49849","Eastern / Central","46.43869","-87.709096"
"(734) 572-","Landline","Washtenaw","Ypsilanti","MI","Michigan","48197","Eastern","42.202139","-83.620494"
"(231) 935-","Landline","Grand Traverse","Traverse City","MI","Michigan","49685","Eastern","44.816178","-85.575147"
"(586) 446-","Landline","Macomb","Warren","MI","Michigan","48089","Eastern","42.474786","-82.995121"
"(989) 209-","Landline","Saginaw","Saginaw","MI","Michigan","48608","Eastern","43.348535","-84.032612"
"(734) 573-","Landline","Washtenaw","Ypsilanti","MI","Michigan","48197","Eastern","42.202139","-83.620494"
"(517) 649-","Landline","Eaton","Mulliken","MI","Michigan","48861","Eastern","42.724229","-84.916222"
"(313) 462-","Unknown","Wayne","Detroit","MI","Michigan","48210","Eastern","42.326937","-83.148424"
"(906) 497-","Landline","Menominee","Powers","MI","Michigan","49874","Eastern / Central","45.703409","-87.512409"
"(734) 715-","Landline","Monroe","Lambertville","MI","Michigan","48144","Eastern","41.759998","-83.618485"
"(734) 377-","Landline","Wayne","Wayne","MI","Michigan","48184","Eastern","42.263487","-83.395975"
"(906) 472-","Landline","Iron","Iron River","MI","Michigan","49935","Eastern / Central","46.12047","-88.618995"
"(586) 575-","Landline","Macomb","Center Line","MI","Michigan","48015","Eastern","42.480186","-83.027221"
"(517) 324-","Landline","Ingham","Lansing","MI","Michigan","48913","Eastern","42.599184","-84.371973"
"(586) 802-","Landline","Macomb","Utica","MI","Michigan","48317","Eastern","42.641276","-83.05043"
"(906) 469-","Landline","Houghton","Houghton","MI","Michigan","49931","Eastern / Central","47.105336","-88.548157"
"(248) 370-","Landline","Oakland","Pontiac","MI","Michigan","48340","Eastern","42.670272","-83.289036"
"(248) 623-","Landline","Oakland","Clarkston","MI","Michigan","48348","Eastern","42.760507","-83.403984"
"(248) 754-","Landline","Oakland","Pontiac","MI","Michigan","48340","Eastern","42.670272","-83.289036"
"(616) 250-","Cell Number","Kent","Grand Rapids","MI","Michigan","49512","Eastern","42.880192","-85.535214"
"(269) 908-","Cell Number","Barry","Hastings","MI","Michigan","49058","Eastern","42.639121","-85.28988"
"(231) 628-","Cell Number","Manistee","Manistee","MI","Michigan","49660","Eastern","44.263534","-86.182473"
"(313) 317-","Landline","Wayne","Dearborn","MI","Michigan","48124","Eastern","42.299302","-83.242577"
"(616) 957-","Landline","Kent","Grand Rapids","MI","Michigan","49512","Eastern","42.880192","-85.535214"
"(231) 725-","Landline","Muskegon","Muskegon","MI","Michigan","49443","Eastern","43.295493","-86.468853"
"(734) 646-","Cell Number","Washtenaw","Ann Arbor","MI","Michigan","48113","Eastern","42.253502","-83.836571"
"(231) 668-","Landline","Grand Traverse","Traverse City","MI","Michigan","49685","Eastern","44.816178","-85.575147"
"(313) 862-","Landline","Wayne","Detroit","MI","Michigan","48210","Eastern","42.326937","-83.148424"
"(231) 845-","Landline","Mason","Ludington","MI","Michigan","49431","Eastern","43.998926","-86.349439"
"(313) 659-","Landline","Wayne","Detroit","MI","Michigan","48210","Eastern","42.326937","-83.148424"
"(231) 640-","Cell Number","Benzie","Lake Ann","MI","Michigan","49650","Eastern","44.722002","-85.882364"
"(269) 585-","Landline","Kalamazoo","Kalamazoo","MI","Michigan","49019","Eastern","42.245412","-85.529858"
"(517) 290-","Cell Number","Ingham","Lansing","MI","Michigan","48913","Eastern","42.599184","-84.371973"
"(313) 388-","Landline","Wayne","Lincoln Park","MI","Michigan","48146","Eastern","42.242038","-83.180375"
"(810) 516-","Cell Number","Genesee","Flint","MI","Michigan","48551","Eastern","42.978995","-83.713124"
"(616) 237-","Landline","Ottawa","Zeeland","MI","Michigan","49464","Eastern","42.869816","-85.969722"
"(517) 358-","Unknown","Jackson","Jackson","MI","Michigan","49201","Eastern","42.248979","-84.421104"
"(989) 776-","Landline","Saginaw","Saginaw","MI","Michigan","48608","Eastern","43.348535","-84.032612"
"(734) 955-","Landline","Wayne","Romulus","MI","Michigan","48174","Eastern","42.20284","-83.351255"
"(313) 578-","Landline","Wayne","Detroit","MI","Michigan","48210","Eastern","42.326937","-83.148424"
"(810) 631-","Landline","Genesee","Otisville","MI","Michigan","48463","Eastern","43.157936","-83.529863"
"(906) 449-","Unknown","Marquette","Marquette","MI","Michigan","49855","Eastern / Central","46.593435","-87.615282"
"(269) 231-","Cell Number","Berrien","New Buffalo","MI","Michigan","49117","Eastern","41.79273","-86.746022"
"(313) 733-","Landline","Wayne","Detroit","MI","Michigan","48210","Eastern","42.326937","-83.148424"
"(810) 332-","Cell Number","Lapeer","Lapeer","MI","Michigan","48446","Eastern","43.121459","-83.319558"
"(231) 245-","Unknown","Newaygo","Newaygo","MI","Michigan","49337","Eastern","43.444927","-85.73898"
"(231) 730-","Cell Number","Muskegon","Muskegon","MI","Michigan","49443","Eastern","43.295493","-86.468853"
"(517) 349-","Landline","Ingham","Okemos","MI","Michigan","48864","Eastern","42.719534","-84.425136"
"(906) 278-","Landline","Chippewa","Brimley","MI","Michigan","49715","Eastern / Central","46.389131","-84.698136"
"(906) 337-","Landline","Houghton","Calumet","MI","Michigan","49913","Eastern / Central","47.154742","-88.525475"
"(810) 210-","Cell Number","Genesee","Flint","MI","Michigan","48551","Eastern","42.978995","-83.713124"
"(269) 276-","Landline","Kalamazoo","Kalamazoo","MI","Michigan","49019","Eastern","42.245412","-85.529858"
"(517) 256-","Cell Number","Ingham","Lansing","MI","Michigan","48913","Eastern","42.599184","-84.371973"
"(248) 310-","Cell Number","Oakland","Pontiac","MI","Michigan","48340","Eastern","42.670272","-83.289036"
"(517) 962-","Unknown","Jackson","Jackson","MI","Michigan","49201","Eastern","42.248979","-84.421104"
"(989) 681-","Landline","Gratiot","Saint Louis","MI","Michigan","48880","Eastern","43.324772","-84.603002"
"(810) 410-","Landline","Genesee","Flint","MI","Michigan","48551","Eastern","42.978995","-83.713124"
"(231) 825-","Landline","Missaukee","Mc Bain","MI","Michigan","49657","Eastern","44.258292","-85.154382"
"(616) 206-","Unknown","Kent","Grand Rapids","MI","Michigan","49512","Eastern","42.880192","-85.535214"
"(313) 962-","Landline","Wayne","Detroit","MI","Michigan","48210","Eastern","42.326937","-83.148424"
"(313) 883-","Landline","Wayne","Highland Park","MI","Michigan","48203","Eastern","42.239933","-83.150823"
"(231) 742-","Cell Number","Oceana","Hart","MI","Michigan","49420","Eastern","43.700968","-86.334122"
"(734) 775-","Cell Number","Wayne","Flat Rock","MI","Michigan","48134","Eastern","42.116811","-83.300439"
"(734) 342-","Landline","Monroe","Monroe","MI","Michigan","48161","Eastern","41.928024","-83.430682"
"(734) 534-","Landline","Monroe","Lambertville","MI","Michigan","48144","Eastern","41.759998","-83.618485"
"(616) 583-","Landline","Kent","Byron Center","MI","Michigan","49315","Eastern","42.835828","-85.664425"
"(810) 632-","Landline","Livingston","Hartland","MI","Michigan","48353","Eastern","42.648484","-83.717806"
"(616) 336-","Cell Number","Kent","Grand Rapids","MI","Michigan","49512","Eastern","42.880192","-85.535214"
"(989) 473-","Landline","Ogemaw","Lupton","MI","Michigan","48635","Eastern","44.377795","-84.072974"
"(734) 497-","Cell Number","Monroe","Monroe","MI","Michigan","48161","Eastern","41.928024","-83.430682"
"(269) 778-","Landline","Kalamazoo","Fulton","MI","Michigan","49052","Eastern","42.13344","-85.342481"
"(989) 553-","Landline","Huron","Pigeon","MI","Michigan","48755","Eastern","43.84452","-83.241886"
"(810) 745-","Cell Number","Genesee","Fenton","MI","Michigan","48430","Eastern","42.83333","-83.763433"
"(810) 239-","Landline","Genesee","Flint","MI","Michigan","48551","Eastern","42.978995","-83.713124"
"(586) 562-","Cell Number","Macomb","Warren","MI","Michigan","48089","Eastern","42.474786","-82.995121"
"(810) 667-","Landline","Lapeer","Lapeer","MI","Michigan","48446","Eastern","43.121459","-83.319558"
"(616) 956-","Landline","Kent","Grand Rapids","MI","Michigan","49512","Eastern","42.880192","-85.535214"
"(734) 878-","Landline","Livingston","Pinckney","MI","Michigan","48169","Eastern","42.467503","-83.946982"
"(517) 582-","Cell Number","Ingham","Lansing","MI","Michigan","48913","Eastern","42.599184","-84.371973"
"(313) 521-","Landline","Wayne","Detroit","MI","Michigan","48210","Eastern","42.326937","-83.148424"
"(313) 333-","Landline","Wayne","Detroit","MI","Michigan","48210","Eastern","42.326937","-83.148424"
"(810) 474-","Landline","Saint Clair","Avoca","MI","Michigan","48006","Eastern","43.075152","-82.695467"
"(517) 606-","Landline","Lenawee","Blissfield","MI","Michigan","49228","Eastern","41.852645","-83.873899"
"(989) 563-","Landline","Roscommon","Roscommon","MI","Michigan","48653","Eastern","44.394517","-84.611194"
"(586) 222-","Landline","Macomb","Roseville","MI","Michigan","48066","Eastern","42.509635","-82.936069"
"(989) 824-","Cell Number","Bay","Bay City","MI","Michigan","48708","Eastern","43.559572","-83.820876"
"(517) 957-","Landline","Ingham","Onondaga","MI","Michigan","49264","Eastern","42.472836","-84.541672"
"(734) 968-","Cell Number","Wayne","Wayne","MI","Michigan","48184","Eastern","42.263487","-83.395975"
"(989) 627-","Cell Number","Shiawassee","Owosso","MI","Michigan","48867","Eastern","42.982578","-84.184937"
"(616) 366-","Landline","Kent","Grand Rapids","MI","Michigan","49512","Eastern","42.880192","-85.535214"
"(231) 821-","Landline","Muskegon","Holton","MI","Michigan","49425","Eastern","43.417206","-86.130268"
"(616) 325-","Unknown","Kent","Grand Rapids","MI","Michigan","49512","Eastern","42.880192","-85.535214"
"(586) 443-","Landline","Macomb","Roseville","MI","Michigan","48066","Eastern","42.509635","-82.936069"
"(734) 710-","Landline","Wayne","Plymouth","MI","Michigan","48170","Eastern","42.366737","-83.489679"
"(231) 715-","Landline","Grand Traverse","Traverse City","MI","Michigan","49685","Eastern","44.816178","-85.575147"
"(269) 615-","Cell Number","Kalamazoo","Kalamazoo","MI","Michigan","49019","Eastern","42.245412","-85.529858"
"(231) 779-","Landline","Wexford","Cadillac","MI","Michigan","49601","Eastern","44.335278","-85.549093"
"(231) 425-","Landline","Mason","Ludington","MI","Michigan","49431","Eastern","43.998926","-86.349439"
"(248) 659-","Landline","Oakland","Rochester","MI","Michigan","48306","Eastern","42.726216","-83.156629"
"(517) 925-","Landline","Eaton","Grand Ledge","MI","Michigan","48837","Eastern","42.700035","-84.766787"
"(906) 713-","Landline","Mackinac","Naubinway","MI","Michigan","49762","Eastern / Central","46.109525","-85.34592"
"(734) 405-","Landline","Wayne","Wayne","MI","Michigan","48184","Eastern","42.263487","-83.395975"
"(231) 926-","Landline","Kalkaska","Kalkaska","MI","Michigan","49646","Eastern","44.697144","-85.092905"
"(313) 792-","Landline","Wayne","Dearborn","MI","Michigan","48124","Eastern","42.299302","-83.242577"
"(586) 619-","Landline","Macomb","Center Line","MI","Michigan","48015","Eastern","42.480186","-83.027221"
"(248) 909-","Cell Number","Oakland","Pontiac","MI","Michigan","48340","Eastern","42.670272","-83.289036"
"(231) 679-","Cell Number","Mecosta","Big Rapids","MI","Michigan","49307","Eastern","43.683493","-85.3518"
"(517) 213-","Unknown","Eaton","Charlotte","MI","Michigan","48813","Eastern","42.574191","-84.838452"
"(616) 988-","Landline","Kent","Grand Rapids","MI","Michigan","49512","Eastern","42.880192","-85.535214"
"(734) 769-","Landline","Washtenaw","Ann Arbor","MI","Michigan","48113","Eastern","42.253502","-83.836571"
"(586) 863-","Landline","Macomb","Roseville","MI","Michigan","48066","Eastern","42.509635","-82.936069"
"(313) 460-","Cell Number","Wayne","Detroit","MI","Michigan","48210","Eastern","42.326937","-83.148424"
"(586) 568-","Cell Number","Macomb","Warren","MI","Michigan","48089","Eastern","42.474786","-82.995121"
"(269) 910-","Cell Number","Kalamazoo","Kalamazoo","MI","Michigan","49019","Eastern","42.245412","-85.529858"
"(313) 725-","Unknown","Wayne","Detroit","MI","Michigan","48210","Eastern","42.326937","-83.148424"
"(231) 681-","Landline","Muskegon","Fruitport","MI","Michigan","49415","Eastern","43.275502","-86.07655"
"(989) 367-","Landline","Tuscola","Cass City","MI","Michigan","48726","Eastern","43.586075","-83.293496"
"(231) 477-","Landline","Manistee","Brethren","MI","Michigan","49619","Eastern","44.309195","-85.972541"
"(269) 637-","Landline","Van Buren","South Haven","MI","Michigan","49090","Eastern","42.363778","-86.138952"
"(313) 610-","Landline","Wayne","Detroit","MI","Michigan","48210","Eastern","42.326937","-83.148424"
"(734) 732-","Landline","Wayne","Belleville","MI","Michigan","48112","Eastern","42.239933","-83.150823"
"(734) 208-","Cell Number","Wayne","Flat Rock","MI","Michigan","48134","Eastern","42.116811","-83.300439"
"(313) 917-","Cell Number","Wayne","Detroit","MI","Michigan","48210","Eastern","42.326937","-83.148424"
"(231) 349-","Cell Number","Mecosta","Big Rapids","MI","Michigan","49307","Eastern","43.683493","-85.3518"
"(810) 812-","Cell Number","Genesee","Flint","MI","Michigan","48551","Eastern","42.978995","-83.713124"
"(989) 669-","Landline","Mecosta","Barryton","MI","Michigan","49305","Eastern","43.737488","-85.166327"
"(313) 402-","Cell Number","Wayne","Detroit","MI","Michigan","48210","Eastern","42.326937","-83.148424"
"(586) 873-","Cell Number","Macomb","Warren","MI","Michigan","48089","Eastern","42.474786","-82.995121"
"(810) 442-","Landline","Genesee","Grand Blanc","MI","Michigan","48439","Eastern","42.9227","-83.67376"
"(248) 742-","Landline","Oakland","Waterford","MI","Michigan","48329","Eastern","42.68258","-83.386338"
"(517) 306-","Landline","Lenawee","Hudson","MI","Michigan","49247","Eastern","41.870383","-84.095955"
"(989) 284-","Cell Number","Saginaw","Saginaw","MI","Michigan","48608","Eastern","43.348535","-84.032612"
"(248) 510-","Cell Number","Oakland","Pontiac","MI","Michigan","48340","Eastern","42.670272","-83.289036"
"(248) 549-","Landline","Oakland","Royal Oak","MI","Michigan","48073","Eastern","42.5216","-83.163477"
"(313) 886-","Landline","Wayne","Detroit","MI","Michigan","48210","Eastern","42.326937","-83.148424"
"(586) 764-","Landline","Macomb","Mount Clemens","MI","Michigan","48043","Eastern","42.597984","-82.877669"
"(810) 673-","Landline","Lapeer","Almont","MI","Michigan","48003","Eastern","42.934027","-83.052481"
"(231) 269-","Landline","Wexford","Buckley","MI","Michigan","49620","Eastern","44.465123","-85.681485"
"(313) 966-","Landline","Wayne","Detroit","MI","Michigan","48210","Eastern","42.326937","-83.148424"
"(231) 329-","Cell Number","Muskegon","Muskegon","MI","Michigan","49443","Eastern","43.295493","-86.468853"
"(269) 384-","Landline","Kalamazoo","Kalamazoo","MI","Michigan","49019","Eastern","42.245412","-85.529858"
"(269) 464-","Landline","Saint Joseph","White Pigeon","MI","Michigan","49099","Eastern","41.859335","-85.553193"
"(586) 218-","Landline","Macomb","Roseville","MI","Michigan","48066","Eastern","42.509635","-82.936069"
"(616) 893-","Cell Number","Kent","Grand Rapids","MI","Michigan","49512","Eastern","42.880192","-85.535214"
"(989) 846-","Landline","Arenac","Standish","MI","Michigan","48658","Eastern","43.979427","-83.900702"
"(231) 793-","Landline","Newaygo","White Cloud","MI","Michigan","49349","Eastern","43.611483","-85.797989"
"(586) 473-","Landline","Macomb","Armada","MI","Michigan","48005","Eastern","42.850051","-82.894993"
"(517) 628-","Landline","Ingham","Onondaga","MI","Michigan","49264","Eastern","42.472836","-84.541672"
"(734) 474-","Cell Number","Washtenaw","Ann Arbor","MI","Michigan","48113","Eastern","42.253502","-83.836571"
"(989) 390-","Cell Number","Crawford","Grayling","MI","Michigan","49739","Eastern","44.682996","-84.610441"
"(269) 792-","Landline","Allegan","Wayland","MI","Michigan","49348","Eastern","42.685065","-85.642406"
"(734) 546-","Cell Number","Washtenaw","Ann Arbor","MI","Michigan","48113","Eastern","42.253502","-83.836571"
"(586) 416-","Landline","Macomb","Mount Clemens","MI","Michigan","48043","Eastern","42.597984","-82.877669"
"(517) 309-","Landline","Branch","Coldwater","MI","Michigan","49036","Eastern","41.905358","-85.058716"
"(989) 646-","Cell Number","Saginaw","Saginaw","MI","Michigan","48608","Eastern","43.348535","-84.032612"
"(989) 516-","Landline","Ogemaw","West Branch","MI","Michigan","48661","Eastern","44.33095","-84.202733"
"(517) 624-","Unknown","Clinton","Dewitt","MI","Michigan","48820","Eastern","42.85479","-84.616108"
"(616) 391-","Cell Number","Kent","Grand Rapids","MI","Michigan","49512","Eastern","42.880192","-85.535214"
"(906) 297-","Landline","Chippewa","De Tour Village","MI","Michigan","49725","Eastern / Central","45.997182","-83.923941"
"(586) 940-","Cell Number","Macomb","Mount Clemens","MI","Michigan","48043","Eastern","42.597984","-82.877669"
"(517) 267-","Landline","Ingham","Lansing","MI","Michigan","48913","Eastern","42.599184","-84.371973"
"(906) 822-","Landline","Iron","Crystal Falls","MI","Michigan","49920","Eastern / Central","46.143009","-88.376197"
"(616) 634-","Cell Number","Kent","Grand Rapids","MI","Michigan","49512","Eastern","42.880192","-85.535214"
"(586) 935-","Landline","Macomb","Washington","MI","Michigan","48094","Eastern","42.755979","-83.037598"
"(231) 534-","Landline","Grand Traverse","Traverse City","MI","Michigan","49685","Eastern","44.816178","-85.575147"
"(248) 323-","Landline","Oakland","Pontiac","MI","Michigan","48340","Eastern","42.670272","-83.289036"
"(313) 873-","Landline","Wayne","Detroit","MI","Michigan","48210","Eastern","42.326937","-83.148424"
"(616) 582-","Landline","Ottawa","Holland","MI","Michigan","49424","Eastern","42.924578","-86.121901"
"(517) 229-","Landline","Ingham","Lansing","MI","Michigan","48913","Eastern","42.599184","-84.371973"
"(313) 418-","Cell Number","Wayne","Detroit","MI","Michigan","48210","Eastern","42.326937","-83.148424"
"(810) 592-","Landline","Sanilac","Sandusky","MI","Michigan","48471","Eastern","43.374676","-82.858995"
"(616) 442-","Landline","Kent","Grand Rapids","MI","Michigan","49512","Eastern","42.880192","-85.535214"
"(517) 932-","Landline","Hillsdale","Allen","MI","Michigan","49227","Eastern","41.956346","-84.767913"
"(989) 822-","Landline","Mecosta","Barryton","MI","Michigan","49305","Eastern","43.737488","-85.166327"
"(616) 949-","Landline","Kent","Grand Rapids","MI","Michigan","49512","Eastern","42.880192","-85.535214"
"(586) 939-","Landline","Macomb","Warren","MI","Michigan","48089","Eastern","42.474786","-82.995121"
"(248) 384-","Landline","Oakland","Clarkston","MI","Michigan","48348","Eastern","42.760507","-83.403984"
"(906) 696-","Landline","Houghton","Houghton","MI","Michigan","49931","Eastern / Central","47.105336","-88.548157"
"(231) 438-","Landline","Manistee","Manistee","MI","Michigan","49660","Eastern","44.263534","-86.182473"
"(269) 733-","Landline","Saint Joseph","Three Rivers","MI","Michigan","49093","Eastern","41.928972","-85.538215"
"(517) 629-","Landline","Calhoun","Albion","MI","Michigan","49224","Eastern","42.2906","-84.792885"
"(248) 642-","Landline","Oakland","Birmingham","MI","Michigan","48009","Eastern","42.534834","-83.22416"
"(231) 259-","Unknown","Oceana","Shelby","MI","Michigan","49455","Eastern","43.638343","-86.349283"
"(586) 896-","Cell Number","Macomb","Warren","MI","Michigan","48089","Eastern","42.474786","-82.995121"
"(586) 558-","Landline","Macomb","Center Line","MI","Michigan","48015","Eastern","42.480186","-83.027221"
"(586) 438-","Cell Number","Macomb","Warren","MI","Michigan","48089","Eastern","42.474786","-82.995121"
"(248) 471-","Landline","Oakland","Farmington","MI","Michigan","48331","Eastern","42.505138","-83.407233"
"(517) 918-","Cell Number","Lenawee","Adrian","MI","Michigan","49221","Eastern","41.889943","-84.065892"
"(248) 399-","Landline","Oakland","Royal Oak","MI","Michigan","48073","Eastern","42.5216","-83.163477"
"(810) 820-","Cell Number","Genesee","Flint","MI","Michigan","48551","Eastern","42.978995","-83.713124"
"(989) 623-","Unknown","Huron","Bad Axe","MI","Michigan","48413","Eastern","43.79455","-82.949138"
"(810) 743-","Landline","Genesee","Flint","MI","Michigan","48551","Eastern","42.978995","-83.713124"
"(906) 575-","Landline","Ontonagon","Bergland","MI","Michigan","49910","Eastern / Central","46.585302","-89.517464"
"(734) 582-","Landline","Wayne","Plymouth","MI","Michigan","48170","Eastern","42.366737","-83.489679"
"(248) 522-","Landline","Oakland","Farmington","MI","Michigan","48331","Eastern","42.505138","-83.407233"
"(313) 964-","Landline","Wayne","Detroit","MI","Michigan","48210","Eastern","42.326937","-83.148424"
"(313) 671-","Landline","Wayne","Detroit","MI","Michigan","48210","Eastern","42.326937","-83.148424"
"(269) 506-","Cell Number","Saint Joseph","Three Rivers","MI","Michigan","49093","Eastern","41.928972","-85.538215"
"(734) 981-","Landline","Wayne","Plymouth","MI","Michigan","48170","Eastern","42.366737","-83.489679"
"(231) 745-","Landline","Lake","Baldwin","MI","Michigan","49304","Eastern","43.929225","-85.840774"
"(231) 758-","Landline","Emmet","Petoskey","MI","Michigan","49770","Eastern","45.355915","-84.913255"
"(231) 215-","Cell Number","Muskegon","Muskegon","MI","Michigan","49443","Eastern","43.295493","-86.468853"
"(231) 208-","Landline","Charlevoix","Boyne Falls","MI","Michigan","49713","Eastern","45.203875","-84.848126"
"(248) 583-","Landline","Oakland","Royal Oak","MI","Michigan","48073","Eastern","42.5216","-83.163477"
"(313) 874-","Landline","Wayne","Detroit","MI","Michigan","48210","Eastern","42.326937","-83.148424"
"(269) 216-","Landline","Kalamazoo","Kalamazoo","MI","Michigan","49019","Eastern","42.245412","-85.529858"
"(231) 225-","Landline","Newaygo","Fremont","MI","Michigan","49413","Eastern","43.554311","-85.800884"
"(810) 867-","Landline","Genesee","Flushing","MI","Michigan","48433","Eastern","42.978274","-83.808006"
"(269) 762-","Cell Number","Kalamazoo","Kalamazoo","MI","Michigan","49019","Eastern","42.245412","-85.529858"
"(517) 542-","Landline","Hillsdale","Litchfield","MI","Michigan","49252","Eastern","42.029101","-84.619228"
"(616) 953-","Unknown","Ottawa","Zeeland","MI","Michigan","49464","Eastern","42.869816","-85.969722"
"(313) 852-","Landline","Wayne","Highland Park","MI","Michigan","48203","Eastern","42.239933","-83.150823"
"(269) 671-","Landline","Barry","Hickory Corners","MI","Michigan","49060","Eastern","42.500132","-85.396204"
"(906) 293-","Landline","Luce","Newberry","MI","Michigan","49868","Eastern / Central","46.460159","-85.515605"
"(248) 219-","Landline","Oakland","Royal Oak","MI","Michigan","48073","Eastern","42.5216","-83.163477"
"(248) 505-","Cell Number","Oakland","Pontiac","MI","Michigan","48340","Eastern","42.670272","-83.289036"
"(313) 450-","Landline","Wayne","Detroit","MI","Michigan","48210","Eastern","42.326937","-83.148424"
"(989) 804-","Landline","Isabella","Shepherd","MI","Michigan","48883","Eastern","43.530865","-84.756824"
"(810) 734-","Cell Number","Saint Clair","Algonac","MI","Michigan","48001","Eastern","42.614984","-82.597768"
"(734) 969-","Landline","Wayne","Rockwood","MI","Michigan","48173","Eastern","42.112182","-83.272588"
"(586) 580-","Landline","Macomb","Utica","MI","Michigan","48317","Eastern","42.641276","-83.05043"
"(517) 337-","Landline","Ingham","Lansing","MI","Michigan","48913","Eastern","42.599184","-84.371973"
"(989) 220-","Cell Number","Bay","Bay City","MI","Michigan","48708","Eastern","43.559572","-83.820876"
"(616) 885-","Landline","Kent","Grand Rapids","MI","Michigan","49512","Eastern","42.880192","-85.535214"
"(517) 351-","Landline","Ingham","Lansing","MI","Michigan","48913","Eastern","42.599184","-84.371973"
"(810) 986-","Cell Number","Livingston","Brighton","MI","Michigan","48116","Eastern","42.529541","-83.776055"
"(586) 949-","Landline","Macomb","New Baltimore","MI","Michigan","48051","Eastern","42.67518","-82.809082"
"(989) 568-","Landline","Gratiot","Ashley","MI","Michigan","48806","Eastern","43.204648","-84.494123"
"(616) 696-","Landline","Kent","Cedar Springs","MI","Michigan","49319","Eastern","43.175953","-85.514105"
"(517) 762-","Landline","Ingham","Dansville","MI","Michigan","48819","Eastern","42.549235","-84.273815"
"(517) 488-","Landline","Ingham","Lansing","MI","Michigan","48913","Eastern","42.599184","-84.371973"
"(734) 403-","Landline","Wayne","Romulus","MI","Michigan","48174","Eastern","42.20284","-83.351255"
"(248) 796-","Landline","Oakland","West Bloomfield","MI","Michigan","48323","Eastern","42.568292","-83.380535"
"(586) 775-","Landline","Macomb","Roseville","MI","Michigan","48066","Eastern","42.509635","-82.936069"
"(616) 607-","Landline","Ottawa","Grand Haven","MI","Michigan","49417","Eastern","43.008786","-86.129031"
"(248) 992-","Cell Number","Oakland","Royal Oak","MI","Michigan","48073","Eastern","42.5216","-83.163477"
"(517) 374-","Landline","Ingham","Lansing","MI","Michigan","48913","Eastern","42.599184","-84.371973"
"(586) 690-","Cell Number","Macomb","Mount Clemens","MI","Michigan","48043","Eastern","42.597984","-82.877669"
"(616) 797-","Landline","Kent","Grand Rapids","MI","Michigan","49512","Eastern","42.880192","-85.535214"
"(231) 853-","Landline","Muskegon","Ravenna","MI","Michigan","49451","Eastern","43.20596","-85.968106"
"(810) 434-","Cell Number","Saint Clair","Port Huron","MI","Michigan","48060","Eastern","42.984014","-82.467461"
"(313) 818-","Cell Number","Wayne","Detroit","MI","Michigan","48210","Eastern","42.326937","-83.148424"
"(616) 770-","Landline","Kent","Grand Rapids","MI","Michigan","49512","Eastern","42.880192","-85.535214"
"(231) 494-","Cell Number","Mecosta","Big Rapids","MI","Michigan","49307","Eastern","43.683493","-85.3518"
"(989) 733-","Landline","Presque Isle","Onaway","MI","Michigan","49765","Eastern","45.363283","-83.871571"
"(269) 939-","Cell Number","Berrien","New Buffalo","MI","Michigan","49117","Eastern","41.79273","-86.746022"
"(231) 488-","Landline","Manistee","Manistee","MI","Michigan","49660","Eastern","44.263534","-86.182473"
"(906) 327-","Landline","Chippewa","Sault Sainte Marie","MI","Michigan","49783","Eastern / Central","46.357439","-84.587315"
"(586) 932-","Landline","Macomb","Utica","MI","Michigan","48317","Eastern","42.641276","-83.05043"
"(734) 868-","Landline","Monroe","Ida","MI","Michigan","48140","Eastern","41.887078","-83.58177"
"(248) 477-","Landline","Oakland","Farmington","MI","Michigan","48331","Eastern","42.505138","-83.407233"
"(517) 490-","Cell Number","Ingham","Lansing","MI","Michigan","48913","Eastern","42.599184","-84.371973"
"(231) 571-","Landline","Muskegon","Muskegon","MI","Michigan","49443","Eastern","43.295493","-86.468853"
"(248) 561-","Cell Number","Oakland","Troy","MI","Michigan","48007","Eastern","42.606088","-83.297593"
"(313) 465-","Landline","Oakland","Detroit","MI","Michigan","48210","Eastern","42.326937","-83.148424"
"(616) 263-","Landline","Kent","Cedar Springs","MI","Michigan","49319","Eastern","43.175953","-85.514105"
"(906) 495-","Landline","Chippewa","Kincheloe","MI","Michigan","49785","Eastern / Central","46.181451","-84.405367"
"(231) 480-","Landline","Mason","Ludington","MI","Michigan","49431","Eastern","43.998926","-86.349439"
"(989) 732-","Landline","Otsego","Gaylord","MI","Michigan","49735","Eastern","45.000937","-84.624586"
"(734) 393-","Landline","Monroe","Erie","MI","Michigan","48133","Eastern","41.790287","-83.504033"
"(248) 229-","Cell Number","Oakland","Birmingham","MI","Michigan","48009","Eastern","42.534834","-83.22416"
"(313) 520-","Cell Number","Wayne","Detroit","MI","Michigan","48210","Eastern","42.326937","-83.148424"
"(616) 443-","Cell Number","Kent","Grand Rapids","MI","Michigan","49512","Eastern","42.880192","-85.535214"
"(810) 371-","Landline","Saint Clair","Capac","MI","Michigan","48014","Eastern","43.026326","-82.929772"
"(313) 225-","Landline","Wayne","Detroit","MI","Michigan","48210","Eastern","42.326937","-83.148424"
"(906) 777-","Landline","Marquette","Marquette","MI","Michigan","49855","Eastern / Central","46.593435","-87.615282"
"(616) 630-","Landline","Kent","Grand Rapids","MI","Michigan","49512","Eastern","42.880192","-85.535214"
"(989) 365-","Landline","Montcalm","Six Lakes","MI","Michigan","48886","Eastern","43.341346","-85.177052"
"(313) 267-","Landline","Wayne","Detroit","MI","Michigan","48210","Eastern","42.326937","-83.148424"
"(734) 625-","Cell Number","Monroe","Monroe","MI","Michigan","48161","Eastern","41.928024","-83.430682"
"(517) 480-","Cell Number","Ingham","Stockbridge","MI","Michigan","49285","Eastern","42.496734","-84.24306"
"(586) 996-","Cell Number","Macomb","Warren","MI","Michigan","48089","Eastern","42.474786","-82.995121"
"(989) 796-","Landline","Gratiot","Alma","MI","Michigan","48801","Eastern","43.298805","-84.63017"
"(313) 588-","Cell Number","Wayne","Detroit","MI","Michigan","48210","Eastern","42.326937","-83.148424"
"(517) 563-","Landline","Jackson","Hanover","MI","Michigan","49241","Eastern","42.111258","-84.601588"
"(586) 406-","Cell Number","Macomb","Warren","MI","Michigan","48089","Eastern","42.474786","-82.995121"
"(313) 386-","Landline","Wayne","Lincoln Park","MI","Michigan","48146","Eastern","42.242038","-83.180375"
"(616) 975-","Landline","Kent","Grand Rapids","MI","Michigan","49512","Eastern","42.880192","-85.535214"
"(810) 420-","Landline","Saint Clair","Marine City","MI","Michigan","48039","Eastern","42.68586","-82.549857"
"(906) 492-","Landline","Chippewa","Paradise","MI","Michigan","49768","Eastern / Central","46.595083","-85.097324"
"(810) 569-","Cell Number","Genesee","Flint","MI","Michigan","48551","Eastern","42.978995","-83.713124"
"(734) 233-","Cell Number","Wayne","Plymouth","MI","Michigan","48170","Eastern","42.366737","-83.489679"
"(734) 593-","Landline","Washtenaw","Chelsea","MI","Michigan","48118","Eastern","42.31375","-84.013999"
"(989) 359-","Unknown","Gladwin","Gladwin","MI","Michigan","48624","Eastern","44.032603","-84.429231"
"(231) 557-","Cell Number","Muskegon","Muskegon","MI","Michigan","49443","Eastern","43.295493","-86.468853"
"(989) 942-","Landline","Ogemaw","West Branch","MI","Michigan","48661","Eastern","44.33095","-84.202733"
"(313) 681-","Cell Number","Wayne","Detroit","MI","Michigan","48210","Eastern","42.326937","-83.148424"
"(517) 393-","Landline","Ingham","Lansing","MI","Michigan","48913","Eastern","42.599184","-84.371973"
"(616) 920-","Unknown","Kent","Grand Rapids","MI","Michigan","49512","Eastern","42.880192","-85.535214"
"(906) 484-","Landline","Mackinac","Cedarville","MI","Michigan","49719","Eastern / Central","46.007211","-84.276199"
"(734) 378-","Landline","Washtenaw","Dexter","MI","Michigan","48130","Eastern","42.353887","-83.898295"
"(269) 601-","Cell Number","Calhoun","Battle Creek","MI","Michigan","49018","Eastern","42.246402","-85.004511"
"(586) 507-","Cell Number","Macomb","Warren","MI","Michigan","48089","Eastern","42.474786","-82.995121"
"(313) 345-","Landline","Wayne","Detroit","MI","Michigan","48210","Eastern","42.326937","-83.148424"
"(734) 518-","Landline","Wayne","Livonia","MI","Michigan","48151","Eastern","42.239933","-83.150823"
"(989) 848-","Landline","Oscoda","Fairview","MI","Michigan","48621","Eastern","44.689286","-84.011959"
"(313) 404-","Cell Number","Wayne","Detroit","MI","Michigan","48210","Eastern","42.326937","-83.148424"
"(517) 639-","Landline","Branch","Quincy","MI","Michigan","49082","Eastern","41.949119","-85.032201"
"(989) 712-","Cell Number","Huron","Harbor Beach","MI","Michigan","48441","Eastern","43.867295","-82.800293"
"(313) 551-","Landline","Wayne","Detroit","MI","Michigan","48210","Eastern","42.326937","-83.148424"
"(586) 321-","Cell Number","Macomb","Mount Clemens","MI","Michigan","48043","Eastern","42.597984","-82.877669"
"(616) 643-","Cell Number","Kent","Grand Rapids","MI","Michigan","49512","Eastern","42.880192","-85.535214"
"(269) 248-","Unknown","Calhoun","Marshall","MI","Michigan","49068","Eastern","42.265016","-84.948946"
"(734) 391-","Landline","Wayne","Belleville","MI","Michigan","48112","Eastern","42.239933","-83.150823"
"(269) 271-","Cell Number","Kalamazoo","Kalamazoo","MI","Michigan","49019","Eastern","42.245412","-85.529858"
"(989) 238-","Landline","Iosco","National City","MI","Michigan","48748","Eastern","44.280833","-83.71748"
"(313) 299-","Landline","Wayne","Taylor","MI","Michigan","48180","Eastern","42.245837","-83.249067"
"(517) 513-","Cell Number","Jackson","Jackson","MI","Michigan","49201","Eastern","42.248979","-84.421104"
"(248) 554-","Landline","Oakland","Royal Oak","MI","Michigan","48073","Eastern","42.5216","-83.163477"
"(313) 566-","Landline","Wayne","Detroit","MI","Michigan","48210","Eastern","42.326937","-83.148424"
"(616) 636-","Landline","Kent","Sand Lake","MI","Michigan","49343","Eastern","43.258296","-85.504509"
"(810) 746-","Landline","Livingston","Hartland","MI","Michigan","48353","Eastern","42.648484","-83.717806"
"(269) 628-","Landline","Van Buren","Gobles","MI","Michigan","49055","Eastern","42.357819","-85.859198"
"(231) 648-","Landline","Montcalm","Howard City","MI","Michigan","49329","Eastern","43.382007","-85.442836"
"(586) 779-","Landline","Macomb","Roseville","MI","Michigan","48066","Eastern","42.509635","-82.936069"
"(313) 864-","Landline","Wayne","Detroit","MI","Michigan","48210","Eastern","42.326937","-83.148424"
"(248) 245-","Cell Number","Oakland","Holly","MI","Michigan","48442","Eastern","42.775922","-83.579384"
"(616) 653-","Cell Number","Kent","Grand Rapids","MI","Michigan","49512","Eastern","42.880192","-85.535214"
"(906) 850-","Landline","Marquette","Marquette","MI","Michigan","49855","Eastern / Central","46.593435","-87.615282"
"(313) 231-","Cell Number","Wayne","Melvindale","MI","Michigan","48122","Eastern","42.353686","-83.223427"
"(517) 355-","Landline","Ingham","Lansing","MI","Michigan","48913","Eastern","42.599184","-84.371973"
"(313) 624-","Landline","Wayne","Dearborn","MI","Michigan","48124","Eastern","42.299302","-83.242577"
"(616) 218-","Cell Number","Ottawa","Holland","MI","Michigan","49424","Eastern","42.924578","-86.121901"
"(248) 856-","Landline","Oakland","Auburn Hills","MI","Michigan","48326","Eastern","42.673931","-83.295052"
"(231) 582-","Landline","Charlevoix","Boyne City","MI","Michigan","49712","Eastern","45.226478","-85.016896"
"(313) 884-","Landline","Wayne","Detroit","MI","Michigan","48210","Eastern","42.326937","-83.148424"
"(313) 626-","Unknown","Wayne","Detroit","MI","Michigan","48210","Eastern","42.326937","-83.148424"
"(269) 349-","Landline","Kalamazoo","Kalamazoo","MI","Michigan","49019","Eastern","42.245412","-85.529858"
"(616) 901-","Cell Number","Kent","Grand Rapids","MI","Michigan","49512","Eastern","42.880192","-85.535214"
"(231) 887-","Landline","Manistee","Manistee","MI","Michigan","49660","Eastern","44.263534","-86.182473"
"(248) 813-","Landline","Oakland","Troy","MI","Michigan","48007","Eastern","42.606088","-83.297593"
"(906) 710-","Landline","Chippewa","De Tour Village","MI","Michigan","49725","Eastern / Central","45.997182","-83.923941"
"(517) 304-","Cell Number","Livingston","Howell","MI","Michigan","48843","Eastern","42.630687","-83.910266"
"(989) 261-","Landline","Montcalm","Crystal","MI","Michigan","48818","Eastern","43.267035","-84.95489"
"(810) 941-","Landline","Saint Clair","Port Huron","MI","Michigan","48060","Eastern","42.984014","-82.467461"
"(517) 575-","Landline","Ingham","Lansing","MI","Michigan","48913","Eastern","42.599184","-84.371973"
"(517) 884-","Landline","Ingham","Lansing","MI","Michigan","48913","Eastern","42.599184","-84.371973"
"(248) 842-","Landline","Oakland","Pontiac","MI","Michigan","48340","Eastern","42.670272","-83.289036"
"(586) 419-","Cell Number","Macomb","Mount Clemens","MI","Michigan","48043","Eastern","42.597984","-82.877669"
"(810) 674-","Landline","Sanilac","Applegate","MI","Michigan","48401","Eastern","43.35159","-82.670835"
"(269) 673-","Landline","Allegan","Allegan","MI","Michigan","49010","Eastern","42.539295","-85.894873"
"(734) 799-","Landline","Monroe","Carleton","MI","Michigan","48117","Eastern","42.0413","-83.428904"
"(517) 265-","Landline","Lenawee","Adrian","MI","Michigan","49221","Eastern","41.889943","-84.065892"
"(248) 488-","Landline","Oakland","Farmington","MI","Michigan","48331","Eastern","42.505138","-83.407233"
"(810) 429-","Cell Number","Genesee","Flint","MI","Michigan","48551","Eastern","42.978995","-83.713124"
"(989) 883-","Landline","Huron","Sebewaing","MI","Michigan","48759","Eastern","43.73616","-83.381857"
"(734) 339-","Landline","Washtenaw","Whitmore Lake","MI","Michigan","48189","Eastern","42.386914","-83.783736"
"(586) 480-","Cell Number","Macomb","Warren","MI","Michigan","48089","Eastern","42.474786","-82.995121"
"(517) 307-","Cell Number","Lenawee","Adrian","MI","Michigan","49221","Eastern","41.889943","-84.065892"
"(810) 620-","Unknown","Genesee","Flint","MI","Michigan","48551","Eastern","42.978995","-83.713124"
"(313) 840-","Cell Number","Wayne","Detroit","MI","Michigan","48210","Eastern","42.326937","-83.148424"
"(231) 309-","Landline","Manistee","Manistee","MI","Michigan","49660","Eastern","44.263534","-86.182473"
"(989) 241-","Landline","Huron","Port Hope","MI","Michigan","48468","Eastern","43.944086","-82.907943"
"(313) 363-","Cell Number","Wayne","Detroit","MI","Michigan","48210","Eastern","42.326937","-83.148424"
"(616) 871-","Landline","Kent","Grand Rapids","MI","Michigan","49512","Eastern","42.880192","-85.535214"
"(906) 406-","Landline","Charlevoix","Beaver Island","MI","Michigan","49782","Eastern / Central","45.668447","-85.547299"
"(269) 927-","Landline","Berrien","Benton Harbor","MI","Michigan","49022","Eastern","42.14338","-86.348568"
"(989) 248-","Landline","Montcalm","Fenwick","MI","Michigan","48834","Eastern","43.292973","-85.045217"
"(517) 458-","Landline","Lenawee","Morenci","MI","Michigan","49256","Eastern","41.84736","-84.229012"
"(989) 422-","Landline","Roscommon","Houghton Lake","MI","Michigan","48629","Eastern","44.351007","-84.733596"
"(248) 288-","Landline","Oakland","Royal Oak","MI","Michigan","48073","Eastern","42.5216","-83.163477"
"(313) 739-","Landline","Oakland","Detroit","MI","Michigan","48210","Eastern","42.326937","-83.148424"
"(810) 377-","Landline","Sanilac","Lexington","MI","Michigan","48450","Eastern","43.392172","-82.78895"
"(248) 680-","Landline","Oakland","Troy","MI","Michigan","48007","Eastern","42.606088","-83.297593"
"(616) 430-","Cell Number","Kent","Grand Rapids","MI","Michigan","49512","Eastern","42.880192","-85.535214"
"(734) 887-","Landline","Washtenaw","Ann Arbor","MI","Michigan","48113","Eastern","42.253502","-83.836571"
"(586) 708-","Cell Number","Macomb","Warren","MI","Michigan","48089","Eastern","42.474786","-82.995121"
"(313) 682-","Cell Number","Wayne","Detroit","MI","Michigan","48210","Eastern","42.326937","-83.148424"
"(248) 899-","Landline","Oakland","Ortonville","MI","Michigan","48462","Eastern","42.835019","-83.42298"
"(313) 689-","Cell Number","Wayne","Detroit","MI","Michigan","48210","Eastern","42.326937","-83.148424"
"(906) 264-","Landline","Marquette","Marquette","MI","Michigan","49855","Eastern / Central","46.593435","-87.615282"
"(231) 916-","Landline","Antrim","Mancelona","MI","Michigan","49659","Eastern","44.947938","-85.122624"
"(231) 885-","Landline","Wexford","Mesick","MI","Michigan","49668","Eastern","44.39912","-85.629669"
"(989) 205-","Landline","Midland","Midland","MI","Michigan","48686","Eastern","43.647297","-84.387331"
"(313) 581-","Landline","Wayne","Dearborn","MI","Michigan","48124","Eastern","42.299302","-83.242577"
"(906) 274-","Landline","Chippewa","Eckerman","MI","Michigan","49728","Eastern / Central","46.536871","-84.862889"
"(231) 312-","Landline","Benzie","Frankfort","MI","Michigan","49635","Eastern","44.613058","-86.177255"
"(269) 795-","Landline","Barry","Middleville","MI","Michigan","49333","Eastern","42.670351","-85.427281"
"(810) 547-","Landline","Genesee","Mount Morris","MI","Michigan","48458","Eastern","43.120587","-83.692978"
"(989) 377-","Landline","Saginaw","Birch Run","MI","Michigan","48415","Eastern","43.27849","-83.81449"
"(313) 703-","Cell Number","Wayne","Detroit","MI","Michigan","48210","Eastern","42.326937","-83.148424"
"(616) 574-","Landline","Kent","Grand Rapids","MI","Michigan","49512","Eastern","42.880192","-85.535214"
"(313) 250-","Landline","Wayne","Detroit","MI","Michigan","48210","Eastern","42.326937","-83.148424"
"(517) 978-","Landline","Eaton","Eaton Rapids","MI","Michigan","48827","Eastern","42.590246","-84.797012"
"(313) 300-","Cell Number","Wayne","Detroit","MI","Michigan","48210","Eastern","42.326937","-83.148424"
"(231) 799-","Landline","Muskegon","Muskegon","MI","Michigan","49443","Eastern","43.295493","-86.468853"
"(231) 878-","Cell Number","Wexford","Cadillac","MI","Michigan","49601","Eastern","44.335278","-85.549093"
"(810) 597-","Landline","Genesee","Flint","MI","Michigan","48551","Eastern","42.978995","-83.713124"
"(517) 288-","Cell Number","Eaton","Sunfield","MI","Michigan","48890","Eastern","42.703177","-84.896833"
"(313) 458-","Unknown","Wayne","Detroit","MI","Michigan","48210","Eastern","42.326937","-83.148424"
"(616) 589-","Unknown","Kent","Grand Rapids","MI","Michigan","49512","Eastern","42.880192","-85.535214"
"(517) 675-","Landline","Shiawassee","Perry","MI","Michigan","48872","Eastern","42.823317","-84.211149"
"(313) 570-","Cell Number","Wayne","Detroit","MI","Michigan","48210","Eastern","42.326937","-83.148424"
"(517) 336-","Landline","Ingham","Lansing","MI","Michigan","48913","Eastern","42.599184","-84.371973"
"(989) 228-","Landline","Montcalm","Crystal","MI","Michigan","48818","Eastern","43.267035","-84.95489"
"(989) 387-","Cell Number","Bay","Bay City","MI","Michigan","48708","Eastern","43.559572","-83.820876"
"(517) 680-","Landline","Calhoun","Albion","MI","Michigan","49224","Eastern","42.2906","-84.792885"
"(989) 756-","Landline","Iosco","Whittemore","MI","Michigan","48770","Eastern","44.262826","-83.688778"
"(269) 869-","Landline","Cass","Dowagiac","MI","Michigan","49047","Eastern","41.961597","-86.019304"
"(734) 761-","Landline","Washtenaw","Ann Arbor","MI","Michigan","48113","Eastern","42.253502","-83.836571"
"(989) 762-","Landline","Montcalm","Edmore","MI","Michigan","48829","Eastern","43.401096","-85.022308"
"(989) 635-","Landline","Sanilac","Marlette","MI","Michigan","48453","Eastern","43.357539","-83.002816"
"(517) 571-","Landline","Livingston","Howell","MI","Michigan","48843","Eastern","42.630687","-83.910266"
"(734) 689-","Landline","Washtenaw","Whitmore Lake","MI","Michigan","48189","Eastern","42.386914","-83.783736"
"(734) 699-","Landline","Wayne","Belleville","MI","Michigan","48112","Eastern","42.239933","-83.150823"
"(989) 469-","Landline","Iosco","National City","MI","Michigan","48748","Eastern","44.280833","-83.71748"
"(269) 366-","Unknown","Kalamazoo","Kalamazoo","MI","Michigan","49019","Eastern","42.245412","-85.529858"
"(269) 870-","Cell Number","Kalamazoo","Kalamazoo","MI","Michigan","49019","Eastern","42.245412","-85.529858"
"(616) 530-","Landline","Kent","Grand Rapids","MI","Michigan","49512","Eastern","42.880192","-85.535214"
"(517) 676-","Landline","Ingham","Mason","MI","Michigan","48854","Eastern","42.574335","-84.460273"
"(231) 335-","Landline","Newaygo","Fremont","MI","Michigan","49413","Eastern","43.554311","-85.800884"
"(231) 512-","Cell Number","Grand Traverse","Traverse City","MI","Michigan","49685","Eastern","44.816178","-85.575147"
"(313) 753-","Cell Number","Wayne","Detroit","MI","Michigan","48210","Eastern","42.326937","-83.148424"
"(313) 434-","Cell Number","Wayne","Detroit","MI","Michigan","48210","Eastern","42.326937","-83.148424"
"(616) 224-","Landline","Kent","Grand Rapids","MI","Michigan","49512","Eastern","42.880192","-85.535214"
"(269) 442-","Unknown","Allegan","Martin","MI","Michigan","49070","Eastern","42.537142","-85.626918"
"(231) 591-","Landline","Mecosta","Big Rapids","MI","Michigan","49307","Eastern","43.683493","-85.3518"
"(734) 216-","Cell Number","Washtenaw","Ann Arbor","MI","Michigan","48113","Eastern","42.253502","-83.836571"
"(989) 661-","Landline","Shiawassee","Henderson","MI","Michigan","48841","Eastern","42.983136","-84.229888"
"(248) 874-","Landline","Oakland","Pontiac","MI","Michigan","48340","Eastern","42.670272","-83.289036"
"(734) 443-","Landline","Wayne","New Boston","MI","Michigan","48164","Eastern","42.135225","-83.390422"
"(248) 904-","Landline","Oakland","Pontiac","MI","Michigan","48340","Eastern","42.670272","-83.289036"
"(734) 717-","Cell Number","Washtenaw","Ann Arbor","MI","Michigan","48113","Eastern","42.253502","-83.836571"
"(989) 532-","Landline","Arenac","Au Gres","MI","Michigan","48703","Eastern","44.063621","-83.686379"
"(269) 986-","Cell Number","Calhoun","Battle Creek","MI","Michigan","49018","Eastern","42.246402","-85.004511"
"(989) 412-","Cell Number","Saginaw","Saginaw","MI","Michigan","48608","Eastern","43.348535","-84.032612"
"(231) 883-","Landline","Grand Traverse","Traverse City","MI","Michigan","49685","Eastern","44.816178","-85.575147"
"(248) 599-","Landline","Oakland","Waterford","MI","Michigan","48329","Eastern","42.68258","-83.386338"
"(734) 904-","Cell Number","Washtenaw","Ann Arbor","MI","Michigan","48113","Eastern","42.253502","-83.836571"
"(989) 980-","Cell Number","Saginaw","Saginaw","MI","Michigan","48608","Eastern","43.348535","-84.032612"
"(313) 515-","Cell Number","Wayne","Detroit","MI","Michigan","48210","Eastern","42.326937","-83.148424"
"(269) 680-","Unknown","Allegan","Plainwell","MI","Michigan","49080","Eastern","42.479577","-85.633538"
"(231) 675-","Cell Number","Charlevoix","Boyne City","MI","Michigan","49712","Eastern","45.226478","-85.016896"
"(989) 366-","Landline","Roscommon","Houghton Lake","MI","Michigan","48629","Eastern","44.351007","-84.733596"
"(248) 637-","Landline","Oakland","Birmingham","MI","Michigan","48009","Eastern","42.534834","-83.22416"
"(616) 272-","Unknown","Kent","Grand Rapids","MI","Michigan","49512","Eastern","42.880192","-85.535214"
"(616) 529-","Cell Number","Ottawa","Grand Haven","MI","Michigan","49417","Eastern","43.008786","-86.129031"
"(517) 968-","Unknown","Ingham","Dansville","MI","Michigan","48819","Eastern","42.549235","-84.273815"
"(734) 530-","Landline","Wayne","Wyandotte","MI","Michigan","48192","Eastern","42.19499","-83.206572"
"(248) 251-","Unknown","Oakland","Troy","MI","Michigan","48007","Eastern","42.606088","-83.297593"
"(313) 665-","Landline","Wayne","Detroit","MI","Michigan","48210","Eastern","42.326937","-83.148424"
"(313) 978-","Cell Number","Wayne","Detroit","MI","Michigan","48210","Eastern","42.326937","-83.148424"
"(734) 566-","Cell Number","Wayne","Plymouth","MI","Michigan","48170","Eastern","42.366737","-83.489679"
"(810) 444-","Cell Number","Genesee","Flint","MI","Michigan","48551","Eastern","42.978995","-83.713124"
"(810) 971-","Landline","Saint Clair","Port Huron","MI","Michigan","48060","Eastern","42.984014","-82.467461"
"(517) 930-","Cell Number","Ingham","Lansing","MI","Michigan","48913","Eastern","42.599184","-84.371973"
"(517) 902-","Cell Number","Lenawee","Adrian","MI","Michigan","49221","Eastern","41.889943","-84.065892"
"(313) 417-","Landline","Wayne","Detroit","MI","Michigan","48210","Eastern","42.326937","-83.148424"
"(517) 890-","Landline","Jackson","Horton","MI","Michigan","49246","Eastern","42.131129","-84.479081"
"(231) 237-","Landline","Charlevoix","Charlevoix","MI","Michigan","49720","Eastern","45.26536","-85.229723"
"(269) 646-","Landline","Cass","Marcellus","MI","Michigan","49067","Eastern","42.008635","-85.857579"
"(313) 629-","Cell Number","Wayne","Detroit","MI","Michigan","48210","Eastern","42.326937","-83.148424"
"(734) 286-","Landline","Wayne","Wyandotte","MI","Michigan","48192","Eastern","42.19499","-83.206572"
"(989) 529-","Cell Number","Saginaw","Saginaw","MI","Michigan","48608","Eastern","43.348535","-84.032612"
"(248) 664-","Landline","Oakland","Milford","MI","Michigan","48380","Eastern","42.593161","-83.645451"
"(734) 833-","Landline","Monroe","Dundee","MI","Michigan","48131","Eastern","41.964903","-83.668808"
"(989) 401-","Unknown","Saginaw","Saginaw","MI","Michigan","48608","Eastern","43.348535","-84.032612"
"(313) 323-","Landline","Wayne","Dearborn","MI","Michigan","48124","Eastern","42.299302","-83.242577"
"(248) 551-","Landline","Oakland","Royal Oak","MI","Michigan","48073","Eastern","42.5216","-83.163477"
"(248) 795-","Unknown","Oakland","Clarkston","MI","Michigan","48348","Eastern","42.760507","-83.403984"
"(989) 678-","Landline","Huron","Owendale","MI","Michigan","48754","Eastern","43.768927","-83.228252"
"(616) 914-","Cell Number","Kent","Grand Rapids","MI","Michigan","49512","Eastern","42.880192","-85.535214"
"(231) 796-","Landline","Mecosta","Big Rapids","MI","Michigan","49307","Eastern","43.683493","-85.3518"
"(269) 944-","Landline","Berrien","Sodus","MI","Michigan","49126","Eastern","42.029487","-86.378199"
"(269) 991-","Cell Number","Berrien","Buchanan","MI","Michigan","49107","Eastern","41.841369","-86.429249"
"(734) 588-","Landline","Washtenaw","Willis","MI","Michigan","48191","Eastern","42.129589","-83.569965"
"(517) 907-","Landline","Jackson","Clarklake","MI","Michigan","49234","Eastern","42.119607","-84.369085"
"(734) 849-","Landline","Monroe","Erie","MI","Michigan","48133","Eastern","41.790287","-83.504033"
"(586) 382-","Cell Number","Macomb","Warren","MI","Michigan","48089","Eastern","42.474786","-82.995121"
"(586) 634-","Cell Number","Macomb","Warren","MI","Michigan","48089","Eastern","42.474786","-82.995121"
"(616) 249-","Landline","Kent","Grand Rapids","MI","Michigan","49512","Eastern","42.880192","-85.535214"
"(313) 435-","Cell Number","Wayne","Detroit","MI","Michigan","48210","Eastern","42.326937","-83.148424"
"(517) 889-","Landline","Ingham","Holt","MI","Michigan","48842","Eastern","42.639785","-84.506522"
"(616) 874-","Landline","Kent","Rockford","MI","Michigan","49351","Eastern","43.031413","-85.550267"
"(906) 598-","Landline","Gogebic","Wakefield","MI","Michigan","49968","Eastern / Central","46.490844","-89.875182"
"(989) 506-","Cell Number","Bay","Bay City","MI","Michigan","48708","Eastern","43.559572","-83.820876"
"(906) 242-","Unknown","Marquette","Marquette","MI","Michigan","49855","Eastern / Central","46.593435","-87.615282"
"(231) 813-","Landline","Mason","Ludington","MI","Michigan","49431","Eastern","43.998926","-86.349439"
"(810) 238-","Landline","Genesee","Flint","MI","Michigan","48551","Eastern","42.978995","-83.713124"
"(269) 226-","Landline","Kalamazoo","Kalamazoo","MI","Michigan","49019","Eastern","42.245412","-85.529858"
"(517) 765-","Landline","Calhoun","Burlington","MI","Michigan","49029","Eastern","42.130843","-85.1023"
"(586) 899-","Cell Number","Macomb","Roseville","MI","Michigan","48066","Eastern","42.509635","-82.936069"
"(248) 978-","Landline","Oakland","Pontiac","MI","Michigan","48340","Eastern","42.670272","-83.289036"
"(231) 649-","Cell Number","Grand Traverse","Traverse City","MI","Michigan","49685","Eastern","44.816178","-85.575147"
"(989) 659-","Landline","Bay","Munger","MI","Michigan","48747","Eastern","43.529339","-83.762898"
"(248) 215-","Landline","Oakland","Holly","MI","Michigan","48442","Eastern","42.775922","-83.579384"
"(231) 627-","Landline","Cheboygan","Cheboygan","MI","Michigan","49721","Eastern","45.592842","-84.468639"
"(734) 455-","Landline","Wayne","Plymouth","MI","Michigan","48170","Eastern","42.366737","-83.489679"
"(517) 222-","Landline","Ingham","Dansville","MI","Michigan","48819","Eastern","42.549235","-84.273815"
"(248) 698-","Landline","Oakland","White Lake","MI","Michigan","48383","Eastern","42.657698","-83.534444"
"(248) 289-","Landline","Oakland","Auburn Hills","MI","Michigan","48326","Eastern","42.673931","-83.295052"
"(313) 846-","Landline","Wayne","Dearborn","MI","Michigan","48124","Eastern","42.299302","-83.242577"
"(586) 453-","Cell Number","Macomb","Romeo","MI","Michigan","48065","Eastern","42.839951","-83.038836"
"(269) 363-","Unknown","Berrien","Benton Harbor","MI","Michigan","49022","Eastern","42.14338","-86.348568"
"(906) 753-","Landline","Menominee","Stephenson","MI","Michigan","49887","Eastern / Central","45.447416","-87.61396"
"(989) 285-","Landline","Gratiot","Alma","MI","Michigan","48801","Eastern","43.298805","-84.63017"
"(517) 486-","Landline","Lenawee","Blissfield","MI","Michigan","49228","Eastern","41.852645","-83.873899"
"(586) 524-","Cell Number","Macomb","Warren","MI","Michigan","48089","Eastern","42.474786","-82.995121"
"(616) 431-","Landline","Kent","Grand Rapids","MI","Michigan","49512","Eastern","42.880192","-85.535214"
"(734) 260-","Cell Number","Washtenaw","Ann Arbor","MI","Michigan","48113","Eastern","42.253502","-83.836571"
"(810) 392-","Landline","Saint Clair","Memphis","MI","Michigan","48041","Eastern","42.941032","-82.804636"
"(616) 399-","Landline","Ottawa","Holland","MI","Michigan","49424","Eastern","42.924578","-86.121901"
"(810) 797-","Landline","Lapeer","Metamora","MI","Michigan","48455","Eastern","42.942128","-83.29607"
"(269) 905-","Cell Number","Calhoun","Battle Creek","MI","Michigan","49018","Eastern","42.246402","-85.004511"
"(248) 523-","Cell Number","Oakland","Farmington","MI","Michigan","48331","Eastern","42.505138","-83.407233"
"(989) 703-","Landline","Gratiot","Ashley","MI","Michigan","48806","Eastern","43.204648","-84.494123"
"(231) 218-","Cell Number","Grand Traverse","Traverse City","MI","Michigan","49685","Eastern","44.816178","-85.575147"
"(989) 303-","Unknown","Gratiot","Saint Louis","MI","Michigan","48880","Eastern","43.324772","-84.603002"
"(616) 851-","Landline","Kent","Grand Rapids","MI","Michigan","49512","Eastern","42.880192","-85.535214"
"(586) 783-","Landline","Macomb","Mount Clemens","MI","Michigan","48043","Eastern","42.597984","-82.877669"
"(734) 543-","Landline","Wayne","New Boston","MI","Michigan","48164","Eastern","42.135225","-83.390422"
"(734) 219-","Unknown","Washtenaw","Ypsilanti","MI","Michigan","48197","Eastern","42.202139","-83.620494"
"(231) 782-","Landline","Cheboygan","Cheboygan","MI","Michigan","49721","Eastern","45.592842","-84.468639"
"(269) 438-","Landline","Kalamazoo","Climax","MI","Michigan","49034","Eastern","42.226193","-85.363194"
"(734) 321-","Landline","Monroe","Maybee","MI","Michigan","48159","Eastern","42.041832","-83.557254"
"(517) 599-","Cell Number","Ingham","Lansing","MI","Michigan","48913","Eastern","42.599184","-84.371973"
"(313) 567-","Landline","Wayne","Detroit","MI","Michigan","48210","Eastern","42.326937","-83.148424"
"(269) 913-","Landline","Van Buren","Paw Paw","MI","Michigan","49079","Eastern","42.243011","-85.930846"
"(734) 528-","Landline","Washtenaw","Ypsilanti","MI","Michigan","48197","Eastern","42.202139","-83.620494"
"(810) 645-","Landline","Sanilac","Port Sanilac","MI","Michigan","48469","Eastern","43.458914","-82.566894"
"(989) 493-","Cell Number","Saginaw","Saginaw","MI","Michigan","48608","Eastern","43.348535","-84.032612"
"(313) 625-","Landline","Wayne","Melvindale","MI","Michigan","48122","Eastern","42.353686","-83.223427"
"(616) 304-","Landline","Kent","Grand Rapids","MI","Michigan","49512","Eastern","42.880192","-85.535214"
"(248) 253-","Landline","Oakland","Pontiac","MI","Michigan","48340","Eastern","42.670272","-83.289036"
"(810) 513-","Cell Number","Genesee","Flint","MI","Michigan","48551","Eastern","42.978995","-83.713124"
"(586) 757-","Landline","Macomb","Center Line","MI","Michigan","48015","Eastern","42.480186","-83.027221"
"(231) 315-","Landline","Muskegon","Muskegon","MI","Michigan","49443","Eastern","43.295493","-86.468853"
"(313) 485-","Cell Number","Wayne","Melvindale","MI","Michigan","48122","Eastern","42.353686","-83.223427"
"(231) 896-","Landline","Montcalm","Coral","MI","Michigan","49322","Eastern","43.359517","-85.353161"
"(231) 720-","Landline","Muskegon","Muskegon","MI","Michigan","49443","Eastern","43.295493","-86.468853"
"(989) 307-","Cell Number","Clinton","Saint Johns","MI","Michigan","48879","Eastern","42.979673","-84.581962"
"(313) 928-","Landline","Wayne","Lincoln Park","MI","Michigan","48146","Eastern","42.242038","-83.180375"
"(734) 552-","Cell Number","Wayne","Wyandotte","MI","Michigan","48192","Eastern","42.19499","-83.206572"
"(248) 495-","Cell Number","Oakland","Rochester","MI","Michigan","48306","Eastern","42.726216","-83.156629"
"(586) 447-","Landline","Macomb","Roseville","MI","Michigan","48066","Eastern","42.509635","-82.936069"
"(586) 797-","Landline","Macomb","Utica","MI","Michigan","48317","Eastern","42.641276","-83.05043"
"(517) 564-","Landline","Lenawee","Adrian","MI","Michigan","49221","Eastern","41.889943","-84.065892"
"(810) 203-","Cell Number","Sanilac","Applegate","MI","Michigan","48401","Eastern","43.35159","-82.670835"
"(810) 641-","Landline","Sanilac","Snover","MI","Michigan","48472","Eastern","43.40401","-82.951494"
"(231) 536-","Landline","Charlevoix","East Jordan","MI","Michigan","49727","Eastern","45.203995","-85.102843"
"(517) 982-","Cell Number","Livingston","Howell","MI","Michigan","48843","Eastern","42.630687","-83.910266"
"(734) 783-","Landline","Wayne","Flat Rock","MI","Michigan","48134","Eastern","42.116811","-83.300439"
"(269) 317-","Cell Number","Calhoun","Battle Creek","MI","Michigan","49018","Eastern","42.246402","-85.004511"
"(517) 331-","Cell Number","Ingham","Lansing","MI","Michigan","48913","Eastern","42.599184","-84.371973"
"(313) 949-","Cell Number","Wayne","Detroit","MI","Michigan","48210","Eastern","42.326937","-83.148424"
"(313) 897-","Landline","Wayne","Detroit","MI","Michigan","48210","Eastern","42.326937","-83.148424"
"(810) 732-","Landline","Genesee","Flint","MI","Michigan","48551","Eastern","42.978995","-83.713124"
"(586) 799-","Landline","Macomb","Utica","MI","Michigan","48317","Eastern","42.641276","-83.05043"
"(231) 848-","Landline","Manistee","Wellston","MI","Michigan","49689","Eastern","44.330169","-86.027194"
"(906) 250-","Cell Number","Marquette","Marquette","MI","Michigan","49855","Eastern / Central","46.593435","-87.615282"
"(313) 493-","Landline","Wayne","Detroit","MI","Michigan","48210","Eastern","42.326937","-83.148424"
"(517) 318-","Landline","Eaton","Lansing","MI","Michigan","48913","Eastern","42.599184","-84.371973"
"(989) 862-","Landline","Clinton","Elsie","MI","Michigan","48831","Eastern","43.08143","-84.445584"
"(313) 999-","Cell Number","Wayne","Melvindale","MI","Michigan","48122","Eastern","42.353686","-83.223427"
"(517) 669-","Landline","Clinton","Dewitt","MI","Michigan","48820","Eastern","42.85479","-84.616108"
"(248) 625-","Landline","Oakland","Clarkston","MI","Michigan","48348","Eastern","42.760507","-83.403984"
"(810) 266-","Landline","Shiawassee","Byron","MI","Michigan","48418","Eastern","42.826333","-84.020577"
"(313) 318-","Cell Number","Wayne","Detroit","MI","Michigan","48210","Eastern","42.326937","-83.148424"
"(734) 680-","Landline","Washtenaw","Ann Arbor","MI","Michigan","48113","Eastern","42.253502","-83.836571"
"(810) 388-","Landline","Saint Clair","Marysville","MI","Michigan","48040","Eastern","42.78269","-82.491538"
"(231) 777-","Landline","Muskegon","Muskegon","MI","Michigan","49443","Eastern","43.295493","-86.468853"
"(231) 682-","Landline","Antrim","Alden","MI","Michigan","49612","Eastern","44.900641","-85.232932"
"(906) 371-","Landline","Marquette","Champion","MI","Michigan","49814","Eastern / Central","46.466637","-87.920429"
"(810) 600-","Landline","Genesee","Flint","MI","Michigan","48551","Eastern","42.978995","-83.713124"
"(734) 225-","Landline","Wayne","Wyandotte","MI","Michigan","48192","Eastern","42.19499","-83.206572"
"(231) 350-","Cell Number","Antrim","Bellaire","MI","Michigan","49615","Eastern","44.997248","-85.198742"
"(517) 319-","Landline","Eaton","Lansing","MI","Michigan","48913","Eastern","42.599184","-84.371973"
"(734) 441-","Landline","Wayne","Rockwood","MI","Michigan","48173","Eastern","42.112182","-83.272588"
"(517) 717-","Landline","Ingham","Williamston","MI","Michigan","48895","Eastern","42.680434","-84.271215"
"(989) 884-","Landline","Alpena","Alpena","MI","Michigan","49707","Eastern","45.033143","-83.495091"
"(616) 821-","Cell Number","Ottawa","Grand Haven","MI","Michigan","49417","Eastern","43.008786","-86.129031"
"(269) 767-","Cell Number","Van Buren","South Haven","MI","Michigan","49090","Eastern","42.363778","-86.138952"
"(231) 228-","Landline","Leelanau","Cedar","MI","Michigan","49621","Eastern","44.860517","-85.813768"
"(313) 372-","Landline","Wayne","Detroit","MI","Michigan","48210","Eastern","42.326937","-83.148424"
"(517) 937-","Cell Number","Jackson","Jackson","MI","Michigan","49201","Eastern","42.248979","-84.421104"
"(269) 627-","Landline","Van Buren","Hartford","MI","Michigan","49057","Eastern","42.218519","-86.052434"
"(616) 802-","Cell Number","Kent","Grand Rapids","MI","Michigan","49512","Eastern","42.880192","-85.535214"
"(313) 473-","Unknown","Wayne","Detroit","MI","Michigan","48210","Eastern","42.326937","-83.148424"
"(586) 698-","Landline","Macomb","Warren","MI","Michigan","48089","Eastern","42.474786","-82.995121"
"(517) 420-","Cell Number","Ingham","Lansing","MI","Michigan","48913","Eastern","42.599184","-84.371973"
"(989) 757-","Landline","Saginaw","Saginaw","MI","Michigan","48608","Eastern","43.348535","-84.032612"
"(734) 779-","Landline","Wayne","Livonia","MI","Michigan","48151","Eastern","42.239933","-83.150823"
"(248) 545-","Landline","Oakland","Royal Oak","MI","Michigan","48073","Eastern","42.5216","-83.163477"
"(989) 345-","Landline","Ogemaw","West Branch","MI","Michigan","48661","Eastern","44.33095","-84.202733"
"(248) 688-","Landline","Oakland","Troy","MI","Michigan","48007","Eastern","42.606088","-83.297593"
"(810) 650-","Cell Number","Saint Clair","Port Huron","MI","Michigan","48060","Eastern","42.984014","-82.467461"
"(616) 421-","Landline","Kent","Grand Rapids","MI","Michigan","49512","Eastern","42.880192","-85.535214"
"(906) 762-","Landline","Luce","Newberry","MI","Michigan","49868","Eastern / Central","46.460159","-85.515605"
"(989) 595-","Landline","Alpena","Alpena","MI","Michigan","49707","Eastern","45.033143","-83.495091"
"(810) 836-","Landline","Genesee","Flint","MI","Michigan","48551","Eastern","42.978995","-83.713124"
"(586) 365-","Landline","Macomb","Warren","MI","Michigan","48089","Eastern","42.474786","-82.995121"
"(269) 221-","Cell Number","Saint Joseph","Sturgis","MI","Michigan","49091","Eastern","41.842913","-85.478265"
"(810) 344-","Landline","Genesee","Grand Blanc","MI","Michigan","48439","Eastern","42.9227","-83.67376"
"(313) 660-","Cell Number","Wayne","Detroit","MI","Michigan","48210","Eastern","42.326937","-83.148424"
"(248) 631-","Landline","Oakland","Birmingham","MI","Michigan","48009","Eastern","42.534834","-83.22416"
"(231) 734-","Landline","Osceola","Evart","MI","Michigan","49631","Eastern","43.958084","-85.302063"
"(231) 314-","Landline","Kalkaska","Kalkaska","MI","Michigan","49646","Eastern","44.697144","-85.092905"
"(616) 257-","Landline","Kent","Grand Rapids","MI","Michigan","49512","Eastern","42.880192","-85.535214"
"(231) 515-","Landline","Osceola","Evart","MI","Michigan","49631","Eastern","43.958084","-85.302063"
"(313) 632-","Cell Number","Wayne","Melvindale","MI","Michigan","48122","Eastern","42.353686","-83.223427"
"(313) 350-","Cell Number","Wayne","Detroit","MI","Michigan","48210","Eastern","42.326937","-83.148424"
"(989) 358-","Landline","Alpena","Alpena","MI","Michigan","49707","Eastern","45.033143","-83.495091"
"(616) 562-","Cell Number","Kent","Grand Rapids","MI","Michigan","49512","Eastern","42.880192","-85.535214"
"(313) 574-","Landline","Wayne","Detroit","MI","Michigan","48210","Eastern","42.326937","-83.148424"
"(586) 319-","Cell Number","Macomb","Warren","MI","Michigan","48089","Eastern","42.474786","-82.995121"
"(231) 994-","Landline","Leelanau","Lake Leelanau","MI","Michigan","49653","Eastern","44.980451","-85.736199"
"(517) 357-","Landline","Hillsdale","Reading","MI","Michigan","49274","Eastern","41.846897","-84.728441"
"(734) 341-","Cell Number","Wayne","Trenton","MI","Michigan","48183","Eastern","42.138209","-83.217937"
"(810) 564-","Landline","Genesee","Clio","MI","Michigan","48420","Eastern","43.170497","-83.707374"
"(248) 988-","Landline","Oakland","Birmingham","MI","Michigan","48009","Eastern","42.534834","-83.22416"
"(616) 220-","Cell Number","Kent","Grand Rapids","MI","Michigan","49512","Eastern","42.880192","-85.535214"
"(248) 745-","Landline","Oakland","Pontiac","MI","Michigan","48340","Eastern","42.670272","-83.289036"
"(989) 710-","Landline","Crawford","Grayling","MI","Michigan","49739","Eastern","44.682996","-84.610441"
"(231) 219-","Landline","Missaukee","Merritt","MI","Michigan","49667","Eastern","44.343261","-84.944639"
"(734) 438-","Landline","Monroe","Maybee","MI","Michigan","48159","Eastern","42.041832","-83.557254"
"(248) 892-","Cell Number","Oakland","Pontiac","MI","Michigan","48340","Eastern","42.670272","-83.289036"
"(906) 914-","Landline","Menominee","Menominee","MI","Michigan","49858","Eastern / Central","45.228959","-87.56772"
"(989) 332-","Unknown","Saginaw","Saginaw","MI","Michigan","48608","Eastern","43.348535","-84.032612"
"(906) 833-","Cell Number","Menominee","Stephenson","MI","Michigan","49887","Eastern / Central","45.447416","-87.61396"
"(313) 970-","Cell Number","Wayne","Detroit","MI","Michigan","48210","Eastern","42.326937","-83.148424"
"(231) 937-","Landline","Montcalm","Howard City","MI","Michigan","49329","Eastern","43.382007","-85.442836"
"(616) 971-","Landline","Kent","Grand Rapids","MI","Michigan","49512","Eastern","42.880192","-85.535214"
"(231) 220-","Landline","Muskegon","Muskegon","MI","Michigan","49443","Eastern","43.295493","-86.468853"
"(248) 930-","Cell Number","Oakland","Troy","MI","Michigan","48007","Eastern","42.606088","-83.297593"
"(616) 742-","Cell Number","Kent","Grand Rapids","MI","Michigan","49512","Eastern","42.880192","-85.535214"
"(989) 281-","Landline","Roscommon","Roscommon","MI","Michigan","48653","Eastern","44.394517","-84.611194"
"(231) 590-","Cell Number","Grand Traverse","Traverse City","MI","Michigan","49685","Eastern","44.816178","-85.575147"
"(248) 852-","Landline","Oakland","Troy","MI","Michigan","48007","Eastern","42.606088","-83.297593"
"(248) 652-","Landline","Oakland","Rochester","MI","Michigan","48306","Eastern","42.726216","-83.156629"
"(989) 895-","Landline","Bay","Bay City","MI","Michigan","48708","Eastern","43.559572","-83.820876"
"(616) 223-","Landline","Ottawa","Grand Haven","MI","Michigan","49417","Eastern","43.008786","-86.129031"
"(906) 542-","Landline","Dickinson","Channing","MI","Michigan","49815","Eastern / Central","46.17823","-87.934279"
"(517) 622-","Landline","Eaton","Grand Ledge","MI","Michigan","48837","Eastern","42.700035","-84.766787"
"(734) 532-","Landline","Wayne","Romulus","MI","Michigan","48174","Eastern","42.20284","-83.351255"
"(989) 486-","Landline","Midland","Midland","MI","Michigan","48686","Eastern","43.647297","-84.387331"
"(313) 491-","Landline","Wayne","Detroit","MI","Michigan","48210","Eastern","42.326937","-83.148424"
"(517) 792-","Landline","Branch","Montgomery","MI","Michigan","49255","Eastern","41.792652","-84.900917"
"(989) 621-","Landline","Isabella","Mount Pleasant","MI","Michigan","48804","Eastern","43.640574","-84.847417"
"(616) 240-","Cell Number","Kent","Grand Rapids","MI","Michigan","49512","Eastern","42.880192","-85.535214"
"(517) 879-","Landline","Jackson","Jackson","MI","Michigan","49201","Eastern","42.248979","-84.421104"
"(810) 542-","Cell Number","Lapeer","Dryden","MI","Michigan","48428","Eastern","42.937629","-83.154685"
"(734) 390-","Landline","Washtenaw","Ypsilanti","MI","Michigan","48197","Eastern","42.202139","-83.620494"
"(989) 612-","Cell Number","Isabella","Mount Pleasant","MI","Michigan","48804","Eastern","43.640574","-84.847417"
"(248) 758-","Landline","Oakland","Pontiac","MI","Michigan","48340","Eastern","42.670272","-83.289036"
"(810) 982-","Landline","Saint Clair","Port Huron","MI","Michigan","48060","Eastern","42.984014","-82.467461"
"(313) 802-","Cell Number","Wayne","Detroit","MI","Michigan","48210","Eastern","42.326937","-83.148424"
"(231) 632-","Landline","Grand Traverse","Traverse City","MI","Michigan","49685","Eastern","44.816178","-85.575147"
"(734) 565-","Landline","Washtenaw","Ann Arbor","MI","Michigan","48113","Eastern","42.253502","-83.836571"
"(810) 240-","Cell Number","Genesee","Flint","MI","Michigan","48551","Eastern","42.978995","-83.713124"
"(734) 362-","Landline","Wayne","Trenton","MI","Michigan","48183","Eastern","42.138209","-83.217937"
"(586) 306-","Cell Number","Macomb","Warren","MI","Michigan","48089","Eastern","42.474786","-82.995121"
"(248) 624-","Landline","Oakland","Walled Lake","MI","Michigan","48391","Eastern","42.660091","-83.3863"
"(248) 771-","Landline","Oakland","Pontiac","MI","Michigan","48340","Eastern","42.670272","-83.289036"
"(517) 327-","Landline","Ingham","Lansing","MI","Michigan","48913","Eastern","42.599184","-84.371973"
"(906) 231-","Cell Number","Houghton","Houghton","MI","Michigan","49931","Eastern / Central","47.105336","-88.548157"
"(231) 923-","Landline","Oceana","Hart","MI","Michigan","49420","Eastern","43.700968","-86.334122"
"(269) 777-","Unknown","Kalamazoo","Kalamazoo","MI","Michigan","49019","Eastern","42.245412","-85.529858"
"(231) 753-","Landline","Emmet","Petoskey","MI","Michigan","49770","Eastern","45.355915","-84.913255"
"(248) 394-","Landline","Oakland","Clarkston","MI","Michigan","48348","Eastern","42.760507","-83.403984"
"(906) 381-","Landline","Alger","Chatham","MI","Michigan","49816","Eastern / Central","46.336962","-86.993579"
"(313) 303-","Cell Number","Wayne","Detroit","MI","Michigan","48210","Eastern","42.326937","-83.148424"
"(231) 894-","Landline","Muskegon","Whitehall","MI","Michigan","49461","Eastern","43.345831","-86.327092"
"(248) 543-","Landline","Oakland","Royal Oak","MI","Michigan","48073","Eastern","42.5216","-83.163477"
"(989) 207-","Cell Number","Midland","Hope","MI","Michigan","48628","Eastern","43.770317","-84.4046"
"(989) 379-","Landline","Alpena","Lachine","MI","Michigan","49753","Eastern","45.013075","-83.761958"
"(734) 840-","Landline","Wayne","Plymouth","MI","Michigan","48170","Eastern","42.366737","-83.489679"
"(231) 486-","Landline","Grand Traverse","Traverse City","MI","Michigan","49685","Eastern","44.816178","-85.575147"
"(616) 734-","Landline","Kent","Grand Rapids","MI","Michigan","49512","Eastern","42.880192","-85.535214"
"(586) 716-","Landline","Macomb","New Baltimore","MI","Michigan","48051","Eastern","42.67518","-82.809082"
"(248) 520-","Cell Number","Oakland","Pontiac","MI","Michigan","48340","Eastern","42.670272","-83.289036"
"(734) 623-","Landline","Washtenaw","Ann Arbor","MI","Michigan","48113","Eastern","42.253502","-83.836571"
"(313) 744-","Unknown","Wayne","Detroit","MI","Michigan","48210","Eastern","42.326937","-83.148424"
"(248) 375-","Landline","Oakland","Rochester","MI","Michigan","48306","Eastern","42.726216","-83.156629"
"(906) 401-","Unknown","Marquette","Negaunee","MI","Michigan","49866","Eastern / Central","46.494904","-87.799518"
"(248) 568-","Cell Number","Oakland","Pontiac","MI","Michigan","48340","Eastern","42.670272","-83.289036"
"(269) 209-","Cell Number","Calhoun","Battle Creek","MI","Michigan","49018","Eastern","42.246402","-85.004511"
"(810) 538-","Landline","Lapeer","Lapeer","MI","Michigan","48446","Eastern","43.121459","-83.319558"
"(231) 774-","Landline","Grand Traverse","Interlochen","MI","Michigan","49643","Eastern","44.633562","-85.782278"
"(810) 336-","Unknown","Genesee","Flint","MI","Michigan","48551","Eastern","42.978995","-83.713124"
"(517) 996-","Landline","Ingham","Williamston","MI","Michigan","48895","Eastern","42.680434","-84.271215"
"(734) 686-","Landline","Washtenaw","Ann Arbor","MI","Michigan","48113","Eastern","42.253502","-83.836571"
"(269) 945-","Landline","Barry","Hastings","MI","Michigan","49058","Eastern","42.639121","-85.28988"
"(989) 540-","Landline","Montcalm","Lakeview","MI","Michigan","48850","Eastern","43.398672","-85.175752"
"(810) 545-","Landline","Lapeer","Columbiaville","MI","Michigan","48421","Eastern","43.072417","-83.292729"
"(269) 714-","Landline","Eaton","Olivet","MI","Michigan","49076","Eastern","42.559717","-84.922599"
"(269) 335-","Landline","Saint Joseph","Colon","MI","Michigan","49040","Eastern","41.977796","-85.351074"
"(517) 919-","Unknown","Shiawassee","Laingsburg","MI","Michigan","48848","Eastern","42.879874","-84.313294"
"(586) 703-","Cell Number","Macomb","Mount Clemens","MI","Michigan","48043","Eastern","42.597984","-82.877669"
"(810) 301-","Landline","Genesee","Flint","MI","Michigan","48551","Eastern","42.978995","-83.713124"
"(517) 441-","Landline","Eaton","Eaton Rapids","MI","Michigan","48827","Eastern","42.590246","-84.797012"
"(810) 900-","Landline","Livingston","Brighton","MI","Michigan","48116","Eastern","42.529541","-83.776055"
"(248) 712-","Landline","Oakland","Birmingham","MI","Michigan","48009","Eastern","42.534834","-83.22416"
"(248) 825-","Unknown","Oakland","Troy","MI","Michigan","48007","Eastern","42.606088","-83.297593"
"(810) 384-","Landline","Saint Clair","Emmett","MI","Michigan","48022","Eastern","43.03545","-82.800896"
"(616) 647-","Landline","Kent","Comstock Park","MI","Michigan","49321","Eastern","43.081164","-85.679652"
"(989) 374-","Landline","Midland","Midland","MI","Michigan","48686","Eastern","43.647297","-84.387331"
"(989) 896-","Landline","Ogemaw","West Branch","MI","Michigan","48661","Eastern","44.33095","-84.202733"
"(313) 516-","Landline","Wayne","Detroit","MI","Michigan","48210","Eastern","42.326937","-83.148424"
"(810) 387-","Landline","Saint Clair","Yale","MI","Michigan","48097","Eastern","42.879217","-82.739491"
"(248) 879-","Landline","Oakland","Troy","MI","Michigan","48007","Eastern","42.606088","-83.297593"
"(810) 233-","Landline","Genesee","Flint","MI","Michigan","48551","Eastern","42.978995","-83.713124"
"(269) 253-","Landline","Van Buren","Grand Junction","MI","Michigan","49056","Eastern","42.367516","-86.07133"
"(231) 439-","Landline","Emmet","Petoskey","MI","Michigan","49770","Eastern","45.355915","-84.913255"
"(810) 230-","Landline","Genesee","Flint","MI","Michigan","48551","Eastern","42.978995","-83.713124"
"(313) 375-","Landline","Wayne","Taylor","MI","Michigan","48180","Eastern","42.245837","-83.249067"
"(231) 827-","Landline","Kalkaska","Fife Lake","MI","Michigan","49633","Eastern","44.584533","-85.393948"
"(586) 530-","Landline","Macomb","Mount Clemens","MI","Michigan","48043","Eastern","42.597984","-82.877669"
"(810) 735-","Landline","Genesee","Linden","MI","Michigan","48451","Eastern","42.825944","-83.811322"
"(248) 261-","Landline","Oakland","Pontiac","MI","Michigan","48340","Eastern","42.670272","-83.289036"
"(517) 483-","Landline","Ingham","Lansing","MI","Michigan","48913","Eastern","42.599184","-84.371973"
"(231) 791-","Landline","Osceola","Reed City","MI","Michigan","49677","Eastern","43.952029","-85.414718"
"(616) 246-","Landline","Kent","Grand Rapids","MI","Michigan","49512","Eastern","42.880192","-85.535214"
"(517) 975-","Unknown","Ingham","Lansing","MI","Michigan","48913","Eastern","42.599184","-84.371973"
"(989) 391-","Unknown","Bay","Bay City","MI","Michigan","48708","Eastern","43.559572","-83.820876"
"(616) 392-","Cell Number","Ottawa","Holland","MI","Michigan","49424","Eastern","42.924578","-86.121901"
"(906) 478-","Landline","Chippewa","Rudyard","MI","Michigan","49780","Eastern / Central","46.258514","-84.800411"
"(906) 265-","Landline","Iron","Iron River","MI","Michigan","49935","Eastern / Central","46.12047","-88.618995"
"(989) 671-","Landline","Bay","Bay City","MI","Michigan","48708","Eastern","43.559572","-83.820876"
"(313) 871-","Landline","Wayne","Detroit","MI","Michigan","48210","Eastern","42.326937","-83.148424"
"(231) 207-","Landline","Benzie","Honor","MI","Michigan","49640","Eastern","44.690037","-86.050384"
"(517) 668-","Landline","Clinton","Dewitt","MI","Michigan","48820","Eastern","42.85479","-84.616108"
"(248) 573-","Landline","Oakland","South Lyon","MI","Michigan","48178","Eastern","42.474564","-83.612188"
"(616) 433-","Landline","Kent","Grand Rapids","MI","Michigan","49512","Eastern","42.880192","-85.535214"
"(313) 531-","Landline","Wayne","Detroit","MI","Michigan","48210","Eastern","42.326937","-83.148424"
"(313) 468-","Landline","Wayne","Detroit","MI","Michigan","48210","Eastern","42.326937","-83.148424"
"(248) 266-","Unknown","Oakland","Rochester","MI","Michigan","48306","Eastern","42.726216","-83.156629"
"(734) 621-","Landline","Monroe","Monroe","MI","Michigan","48161","Eastern","41.928024","-83.430682"
"(989) 561-","Landline","Isabella","Blanchard","MI","Michigan","49310","Eastern","43.552836","-84.966988"
"(231) 256-","Landline","Leelanau","Lake Leelanau","MI","Michigan","49653","Eastern","44.980451","-85.736199"
"(248) 454-","Landline","Oakland","Pontiac","MI","Michigan","48340","Eastern","42.670272","-83.289036"
"(231) 217-","Landline","Manistee","Bear Lake","MI","Michigan","49614","Eastern","44.396671","-86.116727"
"(313) 561-","Landline","Wayne","Dearborn","MI","Michigan","48124","Eastern","42.299302","-83.242577"
"(734) 688-","Landline","Livingston","Pinckney","MI","Michigan","48169","Eastern","42.467503","-83.946982"
"(989) 372-","Unknown","Saginaw","Saginaw","MI","Michigan","48608","Eastern","43.348535","-84.032612"
"(313) 594-","Landline","Wayne","Dearborn","MI","Michigan","48124","Eastern","42.299302","-83.242577"
"(517) 218-","Landline","Ingham","Lansing","MI","Michigan","48913","Eastern","42.599184","-84.371973"
"(517) 597-","Landline","Eaton","Sunfield","MI","Michigan","48890","Eastern","42.703177","-84.896833"
"(734) 825-","Landline","Wayne","Livonia","MI","Michigan","48151","Eastern","42.239933","-83.150823"
"(517) 549-","Landline","Hillsdale","Jonesville","MI","Michigan","49250","Eastern","41.898745","-84.585577"
"(248) 926-","Landline","Oakland","Walled Lake","MI","Michigan","48391","Eastern","42.660091","-83.3863"
"(734) 310-","Landline","Monroe","Dundee","MI","Michigan","48131","Eastern","41.964903","-83.668808"
"(248) 941-","Landline","Oakland","Rochester","MI","Michigan","48306","Eastern","42.726216","-83.156629"
"(989) 889-","Landline","Crawford","Grayling","MI","Michigan","49739","Eastern","44.682996","-84.610441"
"(231) 635-","Landline","Cheboygan","Mackinaw City","MI","Michigan","49701","Eastern","45.753019","-84.691745"
"(517) 899-","Cell Number","Ingham","Lansing","MI","Michigan","48913","Eastern","42.599184","-84.371973"
"(810) 257-","Landline","Genesee","Flint","MI","Michigan","48551","Eastern","42.978995","-83.713124"
"(248) 686-","Landline","Oakland","Birmingham","MI","Michigan","48009","Eastern","42.534834","-83.22416"
"(734) 214-","Landline","Washtenaw","Ann Arbor","MI","Michigan","48113","Eastern","42.253502","-83.836571"
"(313) 324-","Landline","Wayne","Detroit","MI","Michigan","48210","Eastern","42.326937","-83.148424"
"(586) 755-","Landline","Macomb","Center Line","MI","Michigan","48015","Eastern","42.480186","-83.027221"
"(734) 664-","Cell Number","Wayne","Wayne","MI","Michigan","48184","Eastern","42.263487","-83.395975"
"(616) 222-","Landline","Kent","Grand Rapids","MI","Michigan","49512","Eastern","42.880192","-85.535214"
"(517) 526-","Cell Number","Ionia","Portland","MI","Michigan","48875","Eastern","42.883458","-84.965969"
"(517) 912-","Landline","Eaton","Dimondale","MI","Michigan","48821","Eastern","42.654335","-84.654181"
"(810) 579-","Landline","Genesee","Grand Blanc","MI","Michigan","48439","Eastern","42.9227","-83.67376"
"(517) 415-","Landline","Lenawee","Tecumseh","MI","Michigan","49286","Eastern","42.008398","-83.922214"
"(734) 442-","Landline","Wayne","Romulus","MI","Michigan","48174","Eastern","42.20284","-83.351255"
"(989) 715-","Landline","Saginaw","Merrill","MI","Michigan","48637","Eastern","43.389643","-84.309397"
"(517) 922-","Landline","Eaton","Eaton Rapids","MI","Michigan","48827","Eastern","42.590246","-84.797012"
"(586) 745-","Unknown","Macomb","Washington","MI","Michigan","48094","Eastern","42.755979","-83.037598"
"(517) 465-","Unknown","Calhoun","Albion","MI","Michigan","49224","Eastern","42.2906","-84.792885"
"(586) 427-","Landline","Macomb","Center Line","MI","Michigan","48015","Eastern","42.480186","-83.027221"
"(586) 975-","Cell Number","Macomb","Mount Clemens","MI","Michigan","48043","Eastern","42.597984","-82.877669"
"(517) 993-","Landline","Ingham","Lansing","MI","Michigan","48913","Eastern","42.599184","-84.371973"
"(517) 315-","Cell Number","Jackson","Jackson","MI","Michigan","49201","Eastern","42.248979","-84.421104"
"(810) 357-","Cell Number","Saint Clair","Port Huron","MI","Michigan","48060","Eastern","42.984014","-82.467461"
"(248) 572-","Landline","Oakland","Oxford","MI","Michigan","48371","Eastern","42.772209","-83.339754"
"(734) 607-","Unknown","Monroe","Lambertville","MI","Michigan","48144","Eastern","41.759998","-83.618485"
"(248) 714-","Landline","Oakland","Milford","MI","Michigan","48380","Eastern","42.593161","-83.645451"
"(313) 501-","Cell Number","Wayne","Detroit","MI","Michigan","48210","Eastern","42.326937","-83.148424"
"(906) 842-","Landline","Gogebic","Watersmeet","MI","Michigan","49969","Eastern / Central","46.22184","-89.240577"
"(313) 919-","Cell Number","Wayne","Detroit","MI","Michigan","48210","Eastern","42.326937","-83.148424"
"(616) 862-","Cell Number","Kent","Grand Rapids","MI","Michigan","49512","Eastern","42.880192","-85.535214"
"(517) 583-","Landline","Calhoun","Tekonsha","MI","Michigan","49092","Eastern","42.13422","-84.972831"
"(989) 622-","Landline","Ionia","Hubbardston","MI","Michigan","48845","Eastern","43.090457","-84.896225"
"(810) 937-","Landline","Saint Clair","Port Huron","MI","Michigan","48060","Eastern","42.984014","-82.467461"
"(313) 382-","Landline","Wayne","Lincoln Park","MI","Michigan","48146","Eastern","42.242038","-83.180375"
"(313) 292-","Landline","Wayne","Taylor","MI","Michigan","48180","Eastern","42.245837","-83.249067"
"(248) 512-","Landline","Oakland","Pontiac","MI","Michigan","48340","Eastern","42.670272","-83.289036"
"(989) 275-","Landline","Roscommon","Roscommon","MI","Michigan","48653","Eastern","44.394517","-84.611194"
"(810) 714-","Landline","Genesee","Fenton","MI","Michigan","48430","Eastern","42.83333","-83.763433"
"(734) 486-","Landline","Wayne","Wyandotte","MI","Michigan","48192","Eastern","42.19499","-83.206572"
"(231) 608-","Landline","Benzie","Frankfort","MI","Michigan","49635","Eastern","44.613058","-86.177255"
"(517) 209-","Unknown","Ingham","Lansing","MI","Michigan","48913","Eastern","42.599184","-84.371973"
"(586) 485-","Cell Number","Macomb","Mount Clemens","MI","Michigan","48043","Eastern","42.597984","-82.877669"
"(248) 762-","Cell Number","Oakland","Pontiac","MI","Michigan","48340","Eastern","42.670272","-83.289036"
"(734) 638-","Landline","Wayne","Wyandotte","MI","Michigan","48192","Eastern","42.19499","-83.206572"
"(989) 882-","Landline","Tuscola","Vassar","MI","Michigan","48768","Eastern","43.404594","-83.561187"
"(517) 361-","Cell Number","Hillsdale","Hillsdale","MI","Michigan","49242","Eastern","41.853903","-84.582913"
"(586) 254-","Landline","Macomb","Utica","MI","Michigan","48317","Eastern","42.641276","-83.05043"
"(517) 584-","Landline","Calhoun","Albion","MI","Michigan","49224","Eastern","42.2906","-84.792885"
"(231) 871-","Landline","Benzie","Beulah","MI","Michigan","49617","Eastern","44.630634","-86.002509"
"(810) 546-","Landline","Sanilac","Croswell","MI","Michigan","48422","Eastern","43.252807","-82.644104"
"(810) 422-","Landline","Genesee","Flint","MI","Michigan","48551","Eastern","42.978995","-83.713124"
"(734) 294-","Cell Number","Washtenaw","Ann Arbor","MI","Michigan","48113","Eastern","42.253502","-83.836571"
"(248) 967-","Landline","Oakland","Royal Oak","MI","Michigan","48073","Eastern","42.5216","-83.163477"
"(586) 317-","Landline","Macomb","Richmond","MI","Michigan","48062","Eastern","42.838913","-82.799617"
"(906) 869-","Cell Number","Marquette","Marquette","MI","Michigan","49855","Eastern / Central","46.593435","-87.615282"
"(269) 833-","Landline","Kalamazoo","Kalamazoo","MI","Michigan","49019","Eastern","42.245412","-85.529858"
"(517) 906-","Landline","Ingham","Holt","MI","Michigan","48842","Eastern","42.639785","-84.506522"
"(231) 790-","Landline","Mason","Free Soil","MI","Michigan","49411","Eastern","44.071924","-86.252729"
"(517) 527-","Cell Number","Hillsdale","Hillsdale","MI","Michigan","49242","Eastern","41.853903","-84.582913"
"(231) 544-","Landline","Antrim","Central Lake","MI","Michigan","49622","Eastern","45.075986","-85.25591"
"(586) 960-","Landline","Macomb","Romeo","MI","Michigan","48065","Eastern","42.839951","-83.038836"
"(810) 356-","Landline","Lapeer","Lapeer","MI","Michigan","48446","Eastern","43.121459","-83.319558"
"(989) 310-","Cell Number","Iosco","East Tawas","MI","Michigan","48730","Eastern","44.349592","-83.562942"
"(517) 804-","Cell Number","Livingston","Fowlerville","MI","Michigan","48836","Eastern","42.641649","-84.054241"
"(248) 224-","Cell Number","Oakland","Royal Oak","MI","Michigan","48073","Eastern","42.5216","-83.163477"
"(810) 488-","Landline","Saint Clair","Port Huron","MI","Michigan","48060","Eastern","42.984014","-82.467461"
"(231) 457-","Landline","Muskegon","Muskegon","MI","Michigan","49443","Eastern","43.295493","-86.468853"
"(616) 813-","Cell Number","Kent","Grand Rapids","MI","Michigan","49512","Eastern","42.880192","-85.535214"
"(313) 410-","Cell Number","Wayne","Detroit","MI","Michigan","48210","Eastern","42.326937","-83.148424"
"(616) 537-","Landline","Ionia","Lake Odessa","MI","Michigan","48849","Eastern","42.827728","-85.143286"
"(734) 647-","Landline","Washtenaw","Ann Arbor","MI","Michigan","48113","Eastern","42.253502","-83.836571"
"(734) 730-","Landline","Washtenaw","Ann Arbor","MI","Michigan","48113","Eastern","42.253502","-83.836571"
"(313) 213-","Cell Number","Wayne","Melvindale","MI","Michigan","48122","Eastern","42.353686","-83.223427"
"(313) 961-","Landline","Wayne","Detroit","MI","Michigan","48210","Eastern","42.326937","-83.148424"
"(517) 625-","Landline","Shiawassee","Perry","MI","Michigan","48872","Eastern","42.823317","-84.211149"
"(231) 922-","Landline","Grand Traverse","Traverse City","MI","Michigan","49685","Eastern","44.816178","-85.575147"
"(248) 687-","Landline","Oakland","Troy","MI","Michigan","48007","Eastern","42.606088","-83.297593"
"(734) 788-","Cell Number","Wayne","Wayne","MI","Michigan","48184","Eastern","42.263487","-83.395975"
"(269) 612-","Cell Number","Berrien","New Buffalo","MI","Michigan","49117","Eastern","41.79273","-86.746022"
"(248) 913-","Landline","Oakland","Clarkston","MI","Michigan","48348","Eastern","42.760507","-83.403984"
"(313) 533-","Landline","Wayne","Detroit","MI","Michigan","48210","Eastern","42.326937","-83.148424"
"(248) 792-","Landline","Oakland","Birmingham","MI","Michigan","48009","Eastern","42.534834","-83.22416"
"(517) 373-","Landline","Ingham","Lansing","MI","Michigan","48913","Eastern","42.599184","-84.371973"
"(989) 329-","Cell Number","Bay","Bay City","MI","Michigan","48708","Eastern","43.559572","-83.820876"
"(313) 355-","Unknown","Wayne","Detroit","MI","Michigan","48210","Eastern","42.326937","-83.148424"
"(313) 238-","Cell Number","Wayne","Detroit","MI","Michigan","48210","Eastern","42.326937","-83.148424"
"(989) 916-","Landline","Alpena","Alpena","MI","Michigan","49707","Eastern","45.033143","-83.495091"
